{
  "-LuXxvIUQQTP5_8g6EfH" : {
    "icon" : "assets/images/educacao.png",
    "lat" : "-5.007933",
    "long" : "-42.774636",
    "name" : "CRAS Leste I - Pedra Mole"
  },
  "-LuXxvIYmpOV4s9LYbFZ" : {
    "icon" : "assets/images/educacao.png",
    "lat" : "-5.039514",
    "long" : "-42.748764",
    "name" : "CRAS Leste II “Vila Maria”"
  },
  "-LuXxvIYmpOV4s9LYbF_" : {
    "icon" : "assets/images/educacao.png",
    "lat" : "-5.052309",
    "long" : "-42.737673",
    "name" : "CRAS Leste III - Fortalecimentos de Vínculos"
  },
  "-LuXxvIZVJJa9NYdK-3u" : {
    "icon" : "assets/images/educacao.png",
    "lat" : "-5.061388",
    "long" : "-42.768165",
    "name" : "CRAS Leste IV - Semeando Direitos"
  },
  "-LuXxvIZVJJa9NYdK-3v" : {
    "icon" : "assets/images/educacao.png",
    "lat" : "-4.974082",
    "long" : "-42.651758",
    "name" : "CRAS Leste V - Semeando Direitos"
  },
  "-LuXxvI_ZtHxorlnxWe4" : {
    "icon" : "assets/images/educacao.png",
    "lat" : "-4.987284",
    "long" : "-42.840922",
    "name" : "CRAS Norte I - \"Maria Avani Sousa da Silva\""
  },
  "-LuXxvI_ZtHxorlnxWe5" : {
    "icon" : "assets/images/educacao.png",
    "lat" : "-5.041423",
    "long" : "-42.831756",
    "name" : "CRAS Norte II - “Carlos Augusto Rodrigues da Silva”"
  },
  "-LuXxvIaL_qFpUODIyEM" : {
    "icon" : "assets/images/educacao.png",
    "lat" : "-5.034724",
    "long" : "-42.820744",
    "name" : "CRAS Norte III - “Casa São Francisco: Casa das Famílias”"
  },
  "-LuXxvIaL_qFpUODIyEN" : {
    "icon" : "assets/images/educacao.png",
    "lat" : "-5.148059",
    "long" : "-42.78134",
    "name" : "CRAS Sul III - “Maria de Jesus Soares Diocesano”"
  },
  "-LuXxvIaL_qFpUODIyEO" : {
    "icon" : "assets/images/educacao.png",
    "lat" : "-5.105268",
    "long" : "-42.762706",
    "name" : "II Conselho Tutelar - Sudeste"
  },
  "-LuXxvIblvdNg4iTNZlG" : {
    "icon" : "assets/images/educacao.png",
    "lat" : "-5.1047758",
    "long" : "-42.8081263",
    "name" : "III Conselho Tutelar - Sul"
  },
  "-LuXxvIblvdNg4iTNZlH" : {
    "icon" : "assets/images/educacao.png",
    "lat" : "-4.91445",
    "long" : "-42.811532",
    "name" : "CRAS Norte IV “Caminhos Verdes”"
  },
  "-LuXxvIblvdNg4iTNZlI" : {
    "icon" : "assets/images/educacao.png",
    "lat" : "-4.985316",
    "long" : "-42.822413",
    "name" : "CRAS Norte V - “Vieira Toranga”"
  },
  "-LuXxvIctgjLagnd3ll9" : {
    "icon" : "assets/images/educacao.png",
    "lat" : "-5.118611",
    "long" : "-42.761733",
    "name" : "CRAS Sudeste I - “Casa dos Direitos”"
  },
  "-LuXxvIctgjLagnd3llA" : {
    "icon" : "assets/images/educacao.png",
    "lat" : "-5.102461",
    "long" : "-42.755724",
    "name" : "CRAS Sudeste II - Dirceu Arcoverde"
  },
  "-LuXxvIctgjLagnd3llB" : {
    "icon" : "assets/images/educacao.png",
    "lat" : "-5.099373",
    "long" : "-42.729437",
    "name" : "CRAS Sudeste III - Casa da Cidadania"
  },
  "-LuXxvIdARQIAVdHWOHP" : {
    "icon" : "assets/images/educacao.png",
    "lat" : "-5.139",
    "long" : "-42.695829",
    "name" : "CRAS Sudeste IV - Cidadania em Campo"
  },
  "-LuXxvIdARQIAVdHWOHQ" : {
    "icon" : "assets/images/educacao.png",
    "lat" : "-5.191514",
    "long" : "-42.745852",
    "name" : "CRAS Sul I - “Ana Maria Rêgo\""
  },
  "-LuXxvIdARQIAVdHWOHR" : {
    "icon" : "assets/images/educacao.png",
    "lat" : "-5.192832",
    "long" : "-42.783663",
    "name" : "CRAS Sul II - Irmã Dulce"
  },
  "-LuXxvIdARQIAVdHWOHS" : {
    "icon" : "assets/images/educacao.png",
    "lat" : "-5.086684",
    "long" : "-42.801172",
    "name" : "Casa do Caminho"
  },
  "-LuXxvIewBXtNXuQD4Lu" : {
    "icon" : "assets/images/educacao.png",
    "lat" : "-5.103903",
    "long" : "-42.80084",
    "name" : "CRAS Sul IV - “Espaço Família Cidadã”"
  },
  "-LuXxvIewBXtNXuQD4Lv" : {
    "icon" : "assets/images/educacao.png",
    "lat" : "-5.1684052",
    "long" : "-42.7906314",
    "name" : "CRAS Sul V - “Teresa Cristina Braga da Silva\""
  },
  "-LuXxvIewBXtNXuQD4Lw" : {
    "icon" : "assets/images/educacao.png",
    "lat" : "-5.062987",
    "long" : "-42.793189",
    "name" : "CREAS Leste - Celina Sales"
  },
  "-LuXxvIfnmRxkDgG5j1E" : {
    "icon" : "assets/images/educacao.png",
    "lat" : "-5.083072",
    "long" : "-42.81178",
    "name" : "CREAS Norte - Conselheiro Saraiva"
  },
  "-LuXxvIfnmRxkDgG5j1F" : {
    "icon" : "assets/images/educacao.png",
    "lat" : "-5.104652",
    "long" : "-42.808255",
    "name" : "CREAS Sul - Terra do Sol"
  },
  "-LuXxvIg_2VKEa5lmjdo" : {
    "icon" : "assets/images/educacao.png",
    "lat" : "-5.083505",
    "long" : "-42.775261",
    "name" : "CREAS Sudeste - Caneleiro"
  },
  "-LuXxvIhuZth3hxRkPN4" : {
    "icon" : "assets/images/educacao.png",
    "lat" : "-5.084663",
    "long" : "-42.813292",
    "name" : "Centro-Dia de Referência para Pessoas com Deficiência"
  },
  "-LuXxvIipwaefE2A3b2W" : {
    "icon" : "assets/images/educacao.png",
    "lat" : "-5.083358",
    "long" : "-42.820419",
    "name" : "Central de Interpretação de Libras"
  },
  "-LuXxvIjeg4CSAkrZ66I" : {
    "icon" : "assets/images/educacao.png",
    "lat" : "-5.119467",
    "long" : "-42.807676",
    "name" : "ACEP\nAssociação dos Cegos do Piauí"
  },
  "-LuXxvIkPjR_9nJWrLDc" : {
    "icon" : "assets/images/educacao.png",
    "lat" : "-5.080064",
    "long" : "-42.81379",
    "name" : "APADA\nAssociação de Pais e Amigos dos Deficientes Auditivos"
  },
  "-LuXxvIlslEGis3v_8Qb" : {
    "icon" : "assets/images/educacao.png",
    "lat" : "-5.098767",
    "long" : "-42.794412",
    "name" : "APAE\nAssociação dos Pais e Amigos dos Excepcionais"
  },
  "-LuXxvIlslEGis3v_8Qc" : {
    "icon" : "assets/images/educacao.png",
    "lat" : "-5.083538",
    "long" : "-42.799015",
    "name" : "ASA / LAC"
  },
  "-LuXxvIlslEGis3v_8Qd" : {
    "icon" : "assets/images/educacao.png",
    "lat" : "-5.064956",
    "long" : "-42.809887",
    "name" : "AMA - \nAssociação dos Amigos Autistas"
  },
  "-LuXxvImtBOhWYYDDKHu" : {
    "icon" : "assets/images/educacao.png",
    "lat" : "-5.072809",
    "long" : "-42.759703",
    "name" : "Casa de Acolhimento São José"
  },
  "-LuXxvImtBOhWYYDDKHv" : {
    "icon" : "assets/images/educacao.png",
    "lat" : "-5.06963",
    "long" : "-42.813293",
    "name" : "Casa Frederico Ozanam"
  },
  "-LuXxvImtBOhWYYDDKHw" : {
    "icon" : "assets/images/educacao.png",
    "lat" : "-5.059751",
    "long" : "-42.834456",
    "name" : "Casa de Punaré"
  },
  "-LuXxvIn6T-zwZv5Xixp" : {
    "icon" : "assets/images/educacao.png",
    "lat" : "-5.102563",
    "long" : "-42.812417",
    "name" : "Casa de Zabelê"
  },
  "-LuXxvIn6T-zwZv5Xixq" : {
    "icon" : "assets/images/educacao.png",
    "lat" : "-5.068188",
    "long" : "-42.767357",
    "name" : "Casa Reencontro"
  },
  "-LuXxvIn6T-zwZv5Xixr" : {
    "icon" : "assets/images/educacao.png",
    "lat" : "-5.0885",
    "long" : "-42.809801",
    "name" : "Centro Pop"
  },
  "-LuXxvIn6T-zwZv5Xixs" : {
    "icon" : "assets/images/educacao.png",
    "lat" : "-5.068615",
    "long" : "-42.791764",
    "name" : "Lar de Santana"
  },
  "-LuXxvIoY6p9BljGw_8_" : {
    "icon" : "assets/images/educacao.png",
    "lat" : "-4.951672",
    "long" : "-42.703035",
    "name" : "Fundação Abrigo\nSão Lucas"
  },
  "-LuXxvIoY6p9BljGw_8a" : {
    "icon" : "assets/images/educacao.png",
    "lat" : "-5.06448",
    "long" : "-42.835991",
    "name" : "Unidade de Projeto Social - UPS Lagoas do Norte"
  },
  "-LuXxvIoY6p9BljGw_8b" : {
    "icon" : "assets/images/educacao.png",
    "lat" : "-5.091456",
    "long" : "-42.807155",
    "name" : "Fazenda da Paz"
  },
  "-LuXxvIphnZRmlBy7CoY" : {
    "icon" : "assets/images/educacao.png",
    "lat" : "-5.088404",
    "long" : "-42.804539",
    "name" : "I Conselho Tutelar - Norte"
  },
  "-LuXxvIphnZRmlBy7CoZ" : {
    "icon" : "assets/images/educacao.png",
    "lat" : "-5.081441",
    "long" : "-42.788239",
    "name" : "IV Conselho Tutelar - Leste"
  },
  "-LuXxvIphnZRmlBy7Co_" : {
    "icon" : "assets/images/educacao.png",
    "lat" : "-5.068723",
    "long" : "-42.831313",
    "name" : "Centro de Convivência Saber Viver"
  },
  "-LuXxvIphnZRmlBy7Coa" : {
    "icon" : "assets/images/educacao.png",
    "lat" : "-5.083422",
    "long" : "-42.820581",
    "name" : "Centro de Convivência Marly Sarney"
  },
  "-LuXxvIqnbGjVWY8iQ8g" : {
    "icon" : "assets/images/educacao.png",
    "lat" : "-5.159372",
    "long" : "-42.772981",
    "name" : "Centro de Convivência e NAI Km 7"
  },
  "-LuXxvIqnbGjVWY8iQ8h" : {
    "icon" : "assets/images/educacao.png",
    "lat" : "-5.044913",
    "long" : "-42.807126",
    "name" : "Centro de Convivência Grupo de Idosos Feliz Idade"
  },
  "-LuXxvIqnbGjVWY8iQ8i" : {
    "icon" : "assets/images/educacao.png",
    "lat" : "-5.091765",
    "long" : "-42.807985",
    "name" : "Centro Referência para Mulher em Situação de Violência"
  },
  "-LuXxvIrfPr3yu0KYvK3" : {
    "icon" : "assets/images/educacao.png",
    "lat" : "-5.041529",
    "long" : "-42.831711",
    "name" : "Centro de Convivência “Riquinho”"
  },
  "-LuXxvIrfPr3yu0KYvK4" : {
    "icon" : "assets/images/educacao.png",
    "lat" : "-5.102593",
    "long" : "-42.796468",
    "name" : "Centro de Convivência Maria Ester Torres Pereira"
  },
  "-LuXxvIsUycyJ-iASq5f" : {
    "icon" : "assets/images/educacao.png",
    "lat" : "-5.101228",
    "long" : "-42.790181",
    "name" : "Centro de Convivência Grupo de Idosos Ação Arquidiocesana – Pastoral do Idoso-Cristo Rei"
  },
  "-LuXxvIsUycyJ-iASq5g" : {
    "icon" : "assets/images/educacao.png",
    "lat" : "-5.275221",
    "long" : "-42.800787",
    "name" : "Centro de Convivência Grupo de Idosos Cerâmica Cil"
  },
  "-LuXxvItPJrZXruZlt6t" : {
    "icon" : "assets/images/educacao.png",
    "lat" : "-5.045848",
    "long" : "-42.820187",
    "name" : "Centro de Conivência “ANBEAS”"
  },
  "-LuXxvItPJrZXruZlt6u" : {
    "icon" : "assets/images/educacao.png",
    "lat" : "-5.061524",
    "long" : "-42.815152",
    "name" : "Centro de Convivência Grupo de Idosos Carlota Freitas"
  },
  "-LuXxvIuiIEyTUAeeP0y" : {
    "icon" : "assets/images/educacao.png",
    "lat" : "-5.04835",
    "long" : "-42.822481",
    "name" : "Centro de Convivência Itaperu e Adjacências"
  },
  "-LuXxvIuiIEyTUAeeP0z" : {
    "icon" : "assets/images/educacao.png",
    "lat" : "-5.028753",
    "long" : "-42.81939",
    "name" : "Centro de Convivência Grupo de Idosos “Associação dos Fiéis de Santa Joana D’arc”"
  },
  "-LuXxvIvjp8VQMtdK0_t" : {
    "icon" : "assets/images/educacao.png",
    "lat" : "-5.052636",
    "long" : "-42.83357",
    "name" : "Centro de Convivência “Projeto de Ações Integradas São Joaquim”"
  },
  "-LuXxvIvjp8VQMtdK0_u" : {
    "icon" : "assets/images/educacao.png",
    "lat" : "-5.168403",
    "long" : "-42.790081",
    "name" : "Centro de Convivência Pessoa Idosa - Jatobá"
  },
  "-LuXxvIvjp8VQMtdK0_v" : {
    "icon" : "assets/images/educacao.png",
    "lat" : "-5.025753",
    "long" : "-42.743198",
    "name" : "Centro de Convivência do Idoso do Vale do Gavião"
  },
  "-LuXxvIwlB0cBcKMjv68" : {
    "icon" : "assets/images/educacao.png",
    "lat" : "-5.0927342",
    "long" : "-42.7905733",
    "name" : "Centro Dia Saber Cuidar"
  },
  "-LuXxvIxY1QEVZADBSEu" : {
    "icon" : "assets/images/educacao.png",
    "lat" : "-5.087067",
    "long" : "-42.814228",
    "name" : "Restaurante Popular"
  },
  "-LuXxvIyr7-Xnbe1_qPI" : {
    "icon" : "assets/images/educacao.png",
    "lat" : "-5.120407",
    "long" : "-42.794407",
    "name" : "HUT - Hospital de Urgência de Teresina"
  },
  "-LuXxvIyr7-Xnbe1_qPJ" : {
    "icon" : "assets/images/educacao.png",
    "lat" : "-5.148105",
    "long" : "-42.782282",
    "name" : "UPA Promorar"
  },
  "-LuXxvIzMvn0EpgFtRwg" : {
    "icon" : "assets/images/educacao.png",
    "lat" : "-5.1002504",
    "long" : "-42.7339035",
    "name" : "UPA do Renascença"
  },
  "-LuXxvIzMvn0EpgFtRwh" : {
    "icon" : "assets/images/educacao.png",
    "lat" : "-5.0496002",
    "long" : "-42.759115",
    "name" : "UPA do Satélite - Dr. Dib Tajra"
  },
  "-LuXxvJ-MPEK1QbElkko" : {
    "icon" : "assets/images/educacao.png",
    "lat" : "-5.063911",
    "long" : "-42.812479",
    "name" : "Hospital da Primavera"
  },
  "-LuXxvJ05HGMJJHO22iZ" : {
    "icon" : "assets/images/educacao.png",
    "lat" : "-5.06404",
    "long" : "-42.829245",
    "name" : "Hospital do Matadouro - Drº Ozeas Sampaio"
  },
  "-LuXxvJ1uvQOIqmYdcIH" : {
    "icon" : "assets/images/educacao.png",
    "lat" : "-4.995552",
    "long" : "-42.83115",
    "name" : "Hospital Mariano Gayoso Castelo Branco"
  },
  "-LuXxvJ1uvQOIqmYdcII" : {
    "icon" : "assets/images/educacao.png",
    "lat" : "-5.108336",
    "long" : "-42.756627",
    "name" : "Hospital Dr. Alberto Neto - Dirceu Arcoverde II"
  },
  "-LuXxvJ1uvQOIqmYdcIJ" : {
    "icon" : "assets/images/educacao.png",
    "lat" : "-5.103669",
    "long" : "-42.795819",
    "name" : "Hospital Dr. Miguel Couto - Monte Castelo"
  },
  "-LuXxvJ2EPCByqOW_cVq" : {
    "icon" : "assets/images/educacao.png",
    "lat" : "-5.041613",
    "long" : "-42.815573",
    "name" : "Hospital - Maternidade Buenos Aires"
  },
  "-LuXxvJ2EPCByqOW_cVr" : {
    "icon" : "assets/images/educacao.png",
    "lat" : "-5.148582",
    "long" : "-42.782275",
    "name" : "Hospital - Maternidade Promorar"
  },
  "-LuXxvJ3-DMjz96t55nF" : {
    "icon" : "assets/images/educacao.png",
    "lat" : "-5.0498995",
    "long" : "-42.7593396",
    "name" : "Hospital e Maternidade do Satélite"
  },
  "-LuXxvJ3-DMjz96t55nG" : {
    "icon" : "assets/images/educacao.png",
    "lat" : "-5.106295",
    "long" : "-42.755348",
    "name" : "Martenidade Wall Ferraz"
  },
  "-LuXxvJ3-DMjz96t55nH" : {
    "icon" : "assets/images/educacao.png",
    "lat" : "-5.142489",
    "long" : "-42.790361",
    "name" : "Hospital do Parque Piauí"
  },
  "-LuXxvJ4IDtjMSUlQNu9" : {
    "icon" : "assets/images/educacao.png",
    "lat" : "-5.090194",
    "long" : "-42.806933",
    "name" : "Centro Integrado Lineu Araújo - CISLA"
  },
  "-LuXxvJ4IDtjMSUlQNuA" : {
    "icon" : "assets/images/educacao.png",
    "lat" : "-5.116695",
    "long" : "-42.798271",
    "name" : "SAMU Teresina 192"
  },
  "-LuXxvJ4IDtjMSUlQNuB" : {
    "icon" : "assets/images/educacao.png",
    "lat" : "-5.032312",
    "long" : "-42.819597",
    "name" : "UBS Adelino Matos"
  },
  "-LuXxvJ5n4ET3c-BphDK" : {
    "icon" : "assets/images/educacao.png",
    "lat" : "-5.0885019",
    "long" : "-42.736658",
    "name" : "UBS Alto da Ressurreição"
  },
  "-LuXxvJ5n4ET3c-BphDL" : {
    "icon" : "assets/images/educacao.png",
    "lat" : "-5.048071",
    "long" : "-42.810966",
    "name" : "UBS Dep. Francisca Trindade - Água Mineral"
  },
  "-LuXxvJ6IsCSxtsGIpqp" : {
    "icon" : "assets/images/educacao.png",
    "lat" : "-5.009899",
    "long" : "-42.775015",
    "name" : "UBS Anita Ferraz"
  },
  "-LuXxvJ6IsCSxtsGIpqq" : {
    "icon" : "assets/images/educacao.png",
    "lat" : "-4.929206",
    "long" : "-42.855681",
    "name" : "UBS Bela Vista (Rural)"
  },
  "-LuXxvJ7wKqVrxZFx_6I" : {
    "icon" : "assets/images/educacao.png",
    "lat" : "-5.135187",
    "long" : "-42.776461",
    "name" : "UBS Bela Vista"
  },
  "-LuXxvJ7wKqVrxZFx_6J" : {
    "icon" : "assets/images/educacao.png",
    "lat" : "-5.252455",
    "long" : "-42.669727",
    "name" : "UBS Boquinha"
  },
  "-LuXxvJ8z7-k6G45AzY7" : {
    "icon" : "assets/images/educacao.png",
    "lat" : "-5.194024",
    "long" : "-42.763222",
    "name" : "UBS Bruno Rafael Rodrigues de Sousa (Esplanada)"
  },
  "-LuXxvJ99GCFNjTM36Br" : {
    "icon" : "assets/images/educacao.png",
    "lat" : "-5.041748",
    "long" : "-42.813633",
    "name" : "UBS Buenos Aires"
  },
  "-LuXxvJ99GCFNjTM36Bs" : {
    "icon" : "assets/images/educacao.png",
    "lat" : "-4.956331",
    "long" : "-42.708332",
    "name" : "UBS Cacimba Velha"
  },
  "-LuXxvJ99GCFNjTM36Bt" : {
    "icon" : "assets/images/educacao.png",
    "lat" : "-5.075696",
    "long" : "-42.805498",
    "name" : "UBS Cecy Fortes"
  },
  "-LuXxvJAnkLgMsneHTm4" : {
    "icon" : "assets/images/educacao.png",
    "lat" : "-5.300421",
    "long" : "-42.710504",
    "name" : "UBS Chapadinha Sul"
  },
  "-LuXxvJAnkLgMsneHTm5" : {
    "icon" : "assets/images/educacao.png",
    "lat" : "-5.013223",
    "long" : "-42.773041",
    "name" : "UBS Cidade Jardim"
  },
  "-LuXxvJBDc9ryis0CVxv" : {
    "icon" : "assets/images/educacao.png",
    "lat" : "-5.04487",
    "long" : "-42.761275",
    "name" : "UBS Chico Ramos (Satélite)"
  },
  "-LuXxvJBDc9ryis0CVxw" : {
    "icon" : "assets/images/educacao.png",
    "lat" : "-4.938979",
    "long" : "-42.635063",
    "name" : "UBS Coroatá"
  },
  "-LuXxvJBDc9ryis0CVxx" : {
    "icon" : "assets/images/educacao.png",
    "lat" : "-5.0996983",
    "long" : "-42.7851957",
    "name" : "UBS Cristo Rei"
  },
  "-LuXxvJCV4woTYnyKl9A" : {
    "icon" : "assets/images/educacao.png",
    "lat" : "-5.158796",
    "long" : "-42.764745",
    "name" : "UBS Dagma Mazza"
  },
  "-LuXxvJCV4woTYnyKl9B" : {
    "icon" : "assets/images/educacao.png",
    "lat" : "-5.175544",
    "long" : "-42.790243",
    "name" : "UBS Dr. Francílio Almeida (Angelim)"
  },
  "-LuXxvJDTkBkROi5tpIs" : {
    "icon" : "assets/images/educacao.png",
    "lat" : "-5.0881301",
    "long" : "-42.6665865",
    "name" : "UBS Dr. Luiz Gonzaga Pires (Taboca do Pau Ferrado)"
  },
  "-LuXxvJEiMSFI1v_hkOy" : {
    "icon" : "assets/images/educacao.png",
    "lat" : "-5.162135",
    "long" : "-42.781624",
    "name" : "UBS Dr. José Arimateia dos Santos"
  },
  "-LuXxvJEiMSFI1v_hkOz" : {
    "icon" : "assets/images/educacao.png",
    "lat" : "-5.172321",
    "long" : "-42.773267",
    "name" : "UBS Dep. Guilerme Xavier Oliveira Neto - Mario Covas"
  },
  "-LuXxvJFXiejgHJi75V3" : {
    "icon" : "assets/images/educacao.png",
    "lat" : "-4.999116",
    "long" : "-42.733793",
    "name" : "UBS Dep. Alberto Monteiro (Soinho)"
  },
  "-LuXxvJFXiejgHJi75V4" : {
    "icon" : "assets/images/educacao.png",
    "lat" : "-5.12089",
    "long" : "-42.703742",
    "name" : "UBS Deus Quer"
  },
  "-LuXxvJGwobNernFfKYX" : {
    "icon" : "assets/images/educacao.png",
    "lat" : "-5.100437",
    "long" : "-42.754795",
    "name" : "UBS Dirceu I"
  },
  "-LuXxvJGwobNernFfKYY" : {
    "icon" : "assets/images/educacao.png",
    "lat" : "-4.917793",
    "long" : "-42.783571",
    "name" : "UBS Dois Irmãos"
  },
  "-LuXxvJHy-uvunyNWV6s" : {
    "icon" : "assets/images/educacao.png",
    "lat" : "-5.0367848",
    "long" : "-42.8277896",
    "name" : "UBS Dr. Antônio Benício Freire - Poty Velho"
  },
  "-LuXxvJHy-uvunyNWV6t" : {
    "icon" : "assets/images/educacao.png",
    "lat" : "-5.070681",
    "long" : "-42.7588162",
    "name" : "UBS Dr. Américo de Melo Castelo Branco - Santa Isabel"
  },
  "-LuXxvJI7PdHb4IFVRXT" : {
    "icon" : "assets/images/educacao.png",
    "lat" : "-5.15806",
    "long" : "-42.772954",
    "name" : "UBS Dr. Augusto Castro - KM 7"
  },
  "-LuXxvJI7PdHb4IFVRXU" : {
    "icon" : "assets/images/educacao.png",
    "lat" : "-5.053983",
    "long" : "-42.830109",
    "name" : "UBS Dr. Evaldo Carvalho - Nova Brasília"
  },
  "-LuXxvJI7PdHb4IFVRXV" : {
    "icon" : "assets/images/educacao.png",
    "lat" : "-4.98563",
    "long" : "-42.641258",
    "name" : "UBS Dr. Dirceu Arcoverde (Santa Teresa)"
  },
  "-LuXxvJJJjNqUNGNyf6I" : {
    "icon" : "assets/images/educacao.png",
    "lat" : "-5.109229",
    "long" : "-42.758967",
    "name" : "UBS Dirceu II"
  },
  "-LuXxvJJJjNqUNGNyf6J" : {
    "icon" : "assets/images/educacao.png",
    "lat" : "-5.148055",
    "long" : "-42.781727",
    "name" : "UBS Dr. Felipe Eulálio de Pádua - Promorar"
  },
  "-LuXxvJJJjNqUNGNyf6K" : {
    "icon" : "assets/images/educacao.png",
    "lat" : "-5.122677",
    "long" : "-42.805491",
    "name" : "UBS Dr. Francisco Soares Filho (São Pedro)"
  },
  "-LuXxvJJJjNqUNGNyf6L" : {
    "icon" : "assets/images/educacao.png",
    "lat" : "-5.054825",
    "long" : "-42.766621",
    "name" : "UBS Dr. Félix Francisco Pereira"
  },
  "-LuXxvJK5CCnpyHffsMm" : {
    "icon" : "assets/images/educacao.png",
    "lat" : "-5.161686",
    "long" : "-42.688781",
    "name" : "UBS Dr. Gilmar Santana (Usina Santana)"
  },
  "-LuXxvJK5CCnpyHffsMn" : {
    "icon" : "assets/images/educacao.png",
    "lat" : "-4.928305",
    "long" : "-42.766551",
    "name" : "UBS Dr. Guiomar Carvalho (Santa Luz)"
  },
  "-LuXxvJK5CCnpyHffsMo" : {
    "icon" : "assets/images/educacao.png",
    "lat" : "-5.0297748",
    "long" : "-42.8140988",
    "name" : "CMEI Mirian II"
  },
  "-LuXxvJK5CCnpyHffsMp" : {
    "icon" : "assets/images/educacao.png",
    "lat" : "-5.030422",
    "long" : "-42.739637",
    "name" : "UBS Dr. Henrique Melo Castelo Branco (Vale do Gavião)"
  },
  "-LuXxvJLl2Rh6KL1yedd" : {
    "icon" : "assets/images/educacao.png",
    "lat" : "-5.1046",
    "long" : "-42.808119",
    "name" : "UBS Dr. José Wilson Batista - Vermelha"
  },
  "-LuXxvJLl2Rh6KL1yede" : {
    "icon" : "assets/images/educacao.png",
    "lat" : "-5.27715",
    "long" : "-42.7996",
    "name" : "UBS Dr. Leônidas - Cerâmica Cil"
  },
  "-LuXxvJLl2Rh6KL1yedf" : {
    "icon" : "assets/images/educacao.png",
    "lat" : "-5.0046567",
    "long" : "-42.8229684",
    "name" : "UBS Dr. Mariano Mendes"
  },
  "-LuXxvJLl2Rh6KL1yedg" : {
    "icon" : "assets/images/educacao.png",
    "lat" : "-4.986877",
    "long" : "-42.83096",
    "name" : "UBS Dr. Manoel Ayres Parque Wall Ferraz"
  },
  "-LuXxvJMLWV87PjFUjCP" : {
    "icon" : "assets/images/educacao.png",
    "lat" : "-5.012482",
    "long" : "-42.795631",
    "name" : "UBS Dr. Marcos Guedes - Nova Teresina"
  },
  "-LuXxvJMLWV87PjFUjCQ" : {
    "icon" : "assets/images/educacao.png",
    "lat" : "-5.081286",
    "long" : "-42.740105",
    "name" : "UBS Drª Ana Lúcia Salmito"
  },
  "-LuXxvJMLWV87PjFUjCR" : {
    "icon" : "assets/images/educacao.png",
    "lat" : "-5.068031",
    "long" : "-42.828642",
    "name" : "UBS Drª Karla Ivana de Melo Campos - Matadouro"
  },
  "-LuXxvJNDMZWLYNzqRNg" : {
    "icon" : "assets/images/educacao.png",
    "lat" : "-4.893072",
    "long" : "-42.747189",
    "name" : "UBS Drª Lina Gayoso - Campestre Norte"
  },
  "-LuXxvJNDMZWLYNzqRNh" : {
    "icon" : "assets/images/educacao.png",
    "lat" : "-5.047643",
    "long" : "-42.831167",
    "name" : "UBS Drª Maria Teresa de Melo Costa - Mafrense"
  },
  "-LuXxvJNDMZWLYNzqRNi" : {
    "icon" : "assets/images/educacao.png",
    "lat" : "-5.037077",
    "long" : "-42.729184",
    "name" : "UBS Drª Onesima Nascimento (Santa Bárbara)"
  },
  "-LuXxvJNDMZWLYNzqRNj" : {
    "icon" : "assets/images/educacao.png",
    "lat" : "-5.1403106",
    "long" : "-42.7312183",
    "name" : "UBS Elon Constantino Aguiar"
  },
  "-LuXxvJOjMI4e4ZJDuNs" : {
    "icon" : "assets/images/educacao.png",
    "lat" : "-5.058934",
    "long" : "-42.682239",
    "name" : "UBS Estaca Zero"
  },
  "-LuXxvJOjMI4e4ZJDuNt" : {
    "icon" : "assets/images/educacao.png",
    "lat" : "-5.104048",
    "long" : "-42.79462",
    "name" : "UBS Enf. Tania Maria Melo Rodrigues (Monte Castelo)"
  },
  "-LuXxvJOjMI4e4ZJDuNu" : {
    "icon" : "assets/images/educacao.png",
    "lat" : "-4.9932",
    "long" : "-42.812878",
    "name" : "UBS Fernando Gomes Correia Lima - Jacinta Andrade II"
  },
  "-LuXxvJOjMI4e4ZJDuNv" : {
    "icon" : "assets/images/educacao.png",
    "lat" : "-5.137099",
    "long" : "-42.801177",
    "name" : "UBS Leônidas Antônio Deolindo (Saci)"
  },
  "-LuXxvJPkWmVt_56Nmd_" : {
    "icon" : "assets/images/educacao.png",
    "lat" : "-5.150785",
    "long" : "-42.754426",
    "name" : "CMEI Monsenhor Chaves"
  },
  "-LuXxvJPkWmVt_56Nmda" : {
    "icon" : "assets/images/educacao.png",
    "lat" : "-4.893606",
    "long" : "-42.873934",
    "name" : "UBS João Cirilo - Boa Hora"
  },
  "-LuXxvJPkWmVt_56Nmdb" : {
    "icon" : "assets/images/educacao.png",
    "lat" : "-4.983269",
    "long" : "-42.817101",
    "name" : "UBS Jacinta Andrade I"
  },
  "-LuXxvJQtC8lS8Ke5iVT" : {
    "icon" : "assets/images/educacao.png",
    "lat" : "-5.042461",
    "long" : "-42.746157",
    "name" : "UBS José Adail Fontes Fonseca (Taquari)"
  },
  "-LuXxvJQtC8lS8Ke5iVU" : {
    "icon" : "assets/images/educacao.png",
    "lat" : "-5.0828311",
    "long" : "-42.8210845",
    "name" : "UBS José Ribeiro de Carvalho - Cidade Verde"
  },
  "-LuXxvJQtC8lS8Ke5iVV" : {
    "icon" : "assets/images/educacao.png",
    "lat" : "-5.004576",
    "long" : "-42.760989",
    "name" : "UBS Mama Mia"
  },
  "-LuXxvJQtC8lS8Ke5iVW" : {
    "icon" : "assets/images/educacao.png",
    "lat" : "-4.9954951",
    "long" : "-42.8309677",
    "name" : "UBS Mariano Gayoso Castelo Branco"
  },
  "-LuXxvJRhncgms48j4ld" : {
    "icon" : "assets/images/educacao.png",
    "lat" : "-5.0477211",
    "long" : "-42.8204263",
    "name" : "UBS Memoraré"
  },
  "-LuXxvJRhncgms48j4le" : {
    "icon" : "assets/images/educacao.png",
    "lat" : "-5.12047",
    "long" : "-42.755046",
    "name" : "UBS Padre Mario Rocchi"
  },
  "-LuXxvJSAbM86Ry28QVg" : {
    "icon" : "assets/images/educacao.png",
    "lat" : "-5.108593",
    "long" : "-42.77369",
    "name" : "UBS Nossa Senhora da Guia"
  },
  "-LuXxvJSAbM86Ry28QVh" : {
    "icon" : "assets/images/educacao.png",
    "lat" : "-4.884479",
    "long" : "-42.739232",
    "name" : "CMEI Santa Teresinha"
  },
  "-LuXxvJTuMn2d1G_q0pP" : {
    "icon" : "assets/images/educacao.png",
    "lat" : "-5.116496",
    "long" : "-42.787569",
    "name" : "UBS Nossa Senhora da Paz"
  },
  "-LuXxvJUMUhA1qYCvYeU" : {
    "icon" : "assets/images/educacao.png",
    "lat" : "-5.11397",
    "long" : "-42.751697",
    "name" : "UBS Novo Horizonte"
  },
  "-LuXxvJV1YoAiGdGF8Ul" : {
    "icon" : "assets/images/educacao.png",
    "lat" : "-4.998805",
    "long" : "-42.834748",
    "name" : "UBS Parque Brasil"
  },
  "-LuXxvJV1YoAiGdGF8Um" : {
    "icon" : "assets/images/educacao.png",
    "lat" : "-5.097006",
    "long" : "-42.75876",
    "name" : "UBS Parque Flamboyant"
  },
  "-LuXxvJWVglEYCr_C1es" : {
    "icon" : "assets/images/educacao.png",
    "lat" : "-5.1418186",
    "long" : "-42.7912071",
    "name" : "UBS Parque Piauí"
  },
  "-LuXxvJWVglEYCr_C1et" : {
    "icon" : "assets/images/educacao.png",
    "lat" : "-5.150162",
    "long" : "-42.775215",
    "name" : "UBS Parque Pioneiro"
  },
  "-LuXxvJZL7zYLDcYbs81" : {
    "icon" : "assets/images/educacao.png",
    "lat" : "-5.064234",
    "long" : "-42.759657",
    "name" : "UBS Piçarreira"
  },
  "-LuXxvJZL7zYLDcYbs82" : {
    "icon" : "assets/images/educacao.png",
    "lat" : "-5.062838",
    "long" : "-42.778108",
    "name" : "UBS Planalto Ininga"
  },
  "-LuXxvJZL7zYLDcYbs83" : {
    "icon" : "assets/images/educacao.png",
    "lat" : "-5.050686",
    "long" : "-42.738295",
    "name" : "UBS Planalto Uruguai"
  },
  "-LuXxvJ_fy11neOMJyFN" : {
    "icon" : "assets/images/educacao.png",
    "lat" : "-5.1890401",
    "long" : "-42.7443697",
    "name" : "UBS Portal da Alegria"
  },
  "-LuXxvJa0fX3RLbpkDk1" : {
    "icon" : "assets/images/educacao.png",
    "lat" : "-5.191347",
    "long" : "-42.758231",
    "name" : "UBS Porto Alegre"
  },
  "-LuXxvJa0fX3RLbpkDk2" : {
    "icon" : "assets/images/educacao.png",
    "lat" : "-5.113533",
    "long" : "-42.736346",
    "name" : "UBS Raimunda Soares"
  },
  "-LuXxvJa0fX3RLbpkDk3" : {
    "icon" : "assets/images/educacao.png",
    "lat" : "-5.0551423",
    "long" : "-42.8167515",
    "name" : "UBS Real Copagre"
  },
  "-LuXxvJbaqB0JPUCYnEb" : {
    "icon" : "assets/images/educacao.png",
    "lat" : "-5.105234",
    "long" : "-42.749074",
    "name" : "UBS Renascença"
  },
  "-LuXxvJbaqB0JPUCYnEc" : {
    "icon" : "assets/images/educacao.png",
    "lat" : "-4.98381",
    "long" : "-42.842898",
    "name" : "UBS Santa Maria da Codipi"
  },
  "-LuXxvJc6oLl8VN0ibx7" : {
    "icon" : "assets/images/educacao.png",
    "lat" : "-5.131548",
    "long" : "-42.785454",
    "name" : "UBS São Camilo (Lourival Parente)"
  },
  "-LuXxvJc6oLl8VN0ibx8" : {
    "icon" : "assets/images/educacao.png",
    "lat" : "-5.085414",
    "long" : "-42.775844",
    "name" : "UBS São João"
  },
  "-LuXxvJdcb7V6uKB3L31" : {
    "icon" : "assets/images/educacao.png",
    "lat" : "-5.111375",
    "long" : "-42.784758",
    "name" : "UBS Sergio Luiz Chantal - Três Andares"
  },
  "-LuXxvJdcb7V6uKB3L32" : {
    "icon" : "assets/images/educacao.png",
    "lat" : "-5.074563",
    "long" : "-42.623295",
    "name" : "UBS Sitio São Carlos (Atalaia)"
  },
  "-LuXxvJeC4CWqXEhciHt" : {
    "icon" : "assets/images/educacao.png",
    "lat" : "-5.09871",
    "long" : "-42.721873",
    "name" : "UBS Todos os Santos"
  },
  "-LuXxvJfWth6x6smHo5y" : {
    "icon" : "assets/images/educacao.png",
    "lat" : "-5.030041",
    "long" : "-42.815485",
    "name" : "UBS Valdinar Pereira - Mocambinho"
  },
  "-LuXxvJg_kV1xIAvzzVj" : {
    "icon" : "assets/images/educacao.png",
    "lat" : "-5.1502788",
    "long" : "-42.7580428",
    "name" : "UBS Vamos Ver o Sol"
  },
  "-LuXxvJg_kV1xIAvzzVk" : {
    "icon" : "assets/images/educacao.png",
    "lat" : "-5.045926",
    "long" : "-42.752365",
    "name" : "UBS Vila Bandeirante"
  },
  "-LuXxvJlPYP9BVoZvJXI" : {
    "icon" : "assets/images/educacao.png",
    "lat" : "-5.115032",
    "long" : "-42.798239",
    "name" : "UBS Vila Confiança"
  },
  "-LuXxvJn4kyewEPJE3Yh" : {
    "icon" : "assets/images/educacao.png",
    "lat" : "-5.1906594",
    "long" : "-42.7737991",
    "name" : "UBS Vila Irmã Dulce"
  },
  "-LuXxvJn4kyewEPJE3Yi" : {
    "icon" : "assets/images/educacao.png",
    "lat" : "-5.007382",
    "long" : "-42.782281",
    "name" : "UBS Vila do Avião"
  },
  "-LuXxvJpYeCdv1VFHYjA" : {
    "icon" : "assets/images/educacao.png",
    "lat" : "-5.154403",
    "long" : "-42.791926",
    "name" : "UBS Vila Carolina Silva"
  },
  "-LuXxvJpYeCdv1VFHYjB" : {
    "icon" : "assets/images/educacao.png",
    "lat" : "-5.177414",
    "long" : "-42.762693",
    "name" : "UBS Virgina Castelo Branco (Santa Clara)"
  },
  "-LuXxvJqlWmffDa28DeA" : {
    "icon" : "assets/images/educacao.png",
    "lat" : "-5.062061",
    "long" : "-42.81575",
    "name" : "Unidade de Fisioterapia"
  },
  "-LuXxvJqlWmffDa28DeB" : {
    "icon" : "assets/images/educacao.png",
    "lat" : "-5.068711",
    "long" : "-42.828535",
    "name" : "Centro de Zoonoses"
  },
  "-LuXxvJqlWmffDa28DeC" : {
    "icon" : "assets/images/educacao.png",
    "lat" : "-5.120299",
    "long" : "-42.806703",
    "name" : "Centro Diagnóstico Dr. Raul Bacelar"
  },
  "-LuXxvJrWMo-RxgG0npB" : {
    "icon" : "assets/images/educacao.png",
    "lat" : "-5.067684",
    "long" : "-42.767842",
    "name" : "CAPS Infantil - Dr. Alexandre Nogueira"
  },
  "-LuXxvJrWMo-RxgG0npC" : {
    "icon" : "assets/images/educacao.png",
    "lat" : "-5.0696545",
    "long" : "-42.746369",
    "name" : "CEO - Drª Francisca Nascarenhas de Sousa e Silva"
  },
  "-LuXxvJrWMo-RxgG0npD" : {
    "icon" : "assets/images/educacao.png",
    "lat" : "-5.0366811",
    "long" : "-42.8278264",
    "name" : "NASF Centro Norte"
  },
  "-LuXxvJsXJQIk48bTBl4" : {
    "icon" : "assets/images/educacao.png",
    "lat" : "-5.089985",
    "long" : "-42.80718",
    "name" : "CEO I"
  },
  "-LuXxvJsXJQIk48bTBl5" : {
    "icon" : "assets/images/educacao.png",
    "lat" : "-5.1140088",
    "long" : "-42.7985987",
    "name" : "CAPS AD"
  },
  "-LuXxvJtYwM7B23dR2ZD" : {
    "icon" : "assets/images/educacao.png",
    "lat" : "-5.049847",
    "long" : "-42.811365",
    "name" : "CAPS Norte"
  },
  "-LuXxvJtYwM7B23dR2ZE" : {
    "icon" : "assets/images/educacao.png",
    "lat" : "-5.065087",
    "long" : "-42.78065",
    "name" : "CAPS Leste II"
  },
  "-LuXxvJtYwM7B23dR2ZF" : {
    "icon" : "assets/images/educacao.png",
    "lat" : "-5.090115",
    "long" : "-42.806636",
    "name" : "CCTI - Centro de Convivência da Terceira Idade"
  },
  "-LuXxvJuTYy2sgdeHf1x" : {
    "icon" : "assets/images/educacao.png",
    "lat" : "-5.062132",
    "long" : "-42.816003",
    "name" : "Vigilância de Agravos e Doenças Não Transmissíveis"
  },
  "-LuXxvJuTYy2sgdeHf1y" : {
    "icon" : "assets/images/educacao.png",
    "lat" : "-5.0885499",
    "long" : "-42.736591",
    "name" : "Academia da Saúde - Raimundo Nonato de Morais"
  },
  "-LuXxvJuTYy2sgdeHf1z" : {
    "icon" : "assets/images/educacao.png",
    "lat" : "-5.061349",
    "long" : "-42.776328",
    "name" : "CMEI Tia Erinelda Veiga"
  },
  "-LuXxvJv_YP2pN61xg67" : {
    "icon" : "assets/images/educacao.png",
    "lat" : "-5.104048",
    "long" : "-42.79462",
    "name" : "Academia de Saúde - Lucia de Fátima"
  },
  "-LuXxvJv_YP2pN61xg68" : {
    "icon" : "assets/images/educacao.png",
    "lat" : "-5.175561",
    "long" : "-42.7900985",
    "name" : "Academia da Saúde - Angelim"
  },
  "-LuXxvJv_YP2pN61xg69" : {
    "icon" : "assets/images/educacao.png",
    "lat" : "-5.0703923",
    "long" : "-42.7586174",
    "name" : "Academia da Saúde - Santa Isabel"
  },
  "-LuXxvJwgIg_ADqd0CN4" : {
    "icon" : "assets/images/educacao.png",
    "lat" : "-5.0506112",
    "long" : "-42.7382253",
    "name" : "Academia da Saúde - Pedro de Sousa Rocha"
  },
  "-LuXxvJwgIg_ADqd0CN5" : {
    "icon" : "assets/images/educacao.png",
    "lat" : "-4.9869411",
    "long" : "-42.8309493",
    "name" : "Academia da Saúde - Renan Gomes de Oliveira"
  },
  "-LuXxvJwgIg_ADqd0CN6" : {
    "icon" : "assets/images/educacao.png",
    "lat" : "-5.076021",
    "long" : "-42.808029",
    "name" : "CMEI Adelaide Fonteneli"
  },
  "-LuXxvJxnG1gjjoTzNLp" : {
    "icon" : "assets/images/educacao.png",
    "lat" : "-4.984354",
    "long" : "-42.843437",
    "name" : "CMEI Amélia Bevilaqua"
  },
  "-LuXxvJxnG1gjjoTzNLq" : {
    "icon" : "assets/images/educacao.png",
    "lat" : "-5.154618",
    "long" : "-42.757036",
    "name" : "CMEI André Diuare Almeida Carvalho"
  },
  "-LuXxvJxnG1gjjoTzNLr" : {
    "icon" : "assets/images/educacao.png",
    "lat" : "-5.050136",
    "long" : "-42.754235",
    "name" : "CMEI ABC"
  },
  "-LuXxvJxnG1gjjoTzNLs" : {
    "icon" : "assets/images/educacao.png",
    "lat" : "-4.9781",
    "long" : "-42.649952",
    "name" : "CMEI Alda Maria Almendra Freitas C. Branco"
  },
  "-LuXxvJxnG1gjjoTzNLt" : {
    "icon" : "assets/images/educacao.png",
    "lat" : "-5.183588",
    "long" : "-42.789872",
    "name" : "CMEI Angelim IV"
  },
  "-LuXxvJy2EnE0lhgM0kq" : {
    "icon" : "assets/images/educacao.png",
    "lat" : "-5.041163",
    "long" : "-42.821516",
    "name" : "CMEI Anita Ferraz"
  },
  "-LuXxvJy2EnE0lhgM0kr" : {
    "icon" : "assets/images/educacao.png",
    "lat" : "-4.915468",
    "long" : "-42.691813",
    "name" : "CMEI Antônio Alves de Holanda"
  },
  "-LuXxvJy2EnE0lhgM0ks" : {
    "icon" : "assets/images/educacao.png",
    "lat" : "-5.048162",
    "long" : "-42.812099",
    "name" : "CMEI 1.º de Maio"
  },
  "-LuXxvJy2EnE0lhgM0kt" : {
    "icon" : "assets/images/educacao.png",
    "lat" : "-5.050203",
    "long" : "-42.837911",
    "name" : "CMEI Apolônia Carvalho"
  },
  "-LuXxvJy2EnE0lhgM0ku" : {
    "icon" : "assets/images/educacao.png",
    "lat" : "-5.190065",
    "long" : "-42.732963",
    "name" : "CMEI Ariano Suassuna"
  },
  "-LuXxvJzVuz0rX--GyL0" : {
    "icon" : "assets/images/educacao.png",
    "lat" : "-5.005109",
    "long" : "-42.688469",
    "name" : "CMEI Árvores Verdes"
  },
  "-LuXxvJzVuz0rX--GyL1" : {
    "icon" : "assets/images/educacao.png",
    "lat" : "-5.116416",
    "long" : "-42.754429",
    "name" : "CMEI Bernard Van Leer"
  },
  "-LuXxvJzVuz0rX--GyL2" : {
    "icon" : "assets/images/educacao.png",
    "lat" : "-5.155496",
    "long" : "-42.783126",
    "name" : "CMEI Bom Jesus - Wall Ferraz"
  },
  "-LuXxvJzVuz0rX--GyL3" : {
    "icon" : "assets/images/educacao.png",
    "lat" : "-5.066329",
    "long" : "-42.752502",
    "name" : "CMEI Bom Samaritano"
  },
  "-LuXxvK-7or9PZwIHB_B" : {
    "icon" : "assets/images/educacao.png",
    "lat" : "-5.15719",
    "long" : "-42.794607",
    "name" : "CMEI Cássia Cristina"
  },
  "-LuXxvK-7or9PZwIHB_C" : {
    "icon" : "assets/images/educacao.png",
    "lat" : "-5.1924871",
    "long" : "-42.7380811",
    "name" : "CMEI Carlos Drummond de Andrade"
  },
  "-LuXxvK-7or9PZwIHB_D" : {
    "icon" : "assets/images/educacao.png",
    "lat" : "-5.1724866",
    "long" : "-42.7562645",
    "name" : "CMEI Cecília Meireles"
  },
  "-LuXxvK-7or9PZwIHB_E" : {
    "icon" : "assets/images/educacao.png",
    "lat" : "-5.300291",
    "long" : "-42.711245",
    "name" : "CMEI Chapadinha Sul"
  },
  "-LuXxvK0GI4SAgAWtgkQ" : {
    "icon" : "assets/images/educacao.png",
    "lat" : "-5.185242",
    "long" : "-42.751203",
    "name" : "CMEI Chico Mendes"
  },
  "-LuXxvK0GI4SAgAWtgkR" : {
    "icon" : "assets/images/educacao.png",
    "lat" : "-5.100812",
    "long" : "-42.733541",
    "name" : "CMEI Chico Xavier"
  },
  "-LuXxvK0GI4SAgAWtgkS" : {
    "icon" : "assets/images/educacao.png",
    "lat" : "-5.040075",
    "long" : "-42.746544",
    "name" : "CMEI Cidade Leste"
  },
  "-LuXxvK16hOV7VrgHtFt" : {
    "icon" : "assets/images/educacao.png",
    "lat" : "-5.110975",
    "long" : "-42.785975",
    "name" : "CMEI Cirandinha"
  },
  "-LuXxvK16hOV7VrgHtFu" : {
    "icon" : "assets/images/educacao.png",
    "lat" : "-5.089557",
    "long" : "-42.738223",
    "name" : "CMEI Clarice Lispector"
  },
  "-LuXxvK16hOV7VrgHtFv" : {
    "icon" : "assets/images/educacao.png",
    "lat" : "-5.110166",
    "long" : "-42.743046",
    "name" : "CMEI Cintia Medeiros de Oliveira"
  },
  "-LuXxvK16hOV7VrgHtFw" : {
    "icon" : "assets/images/educacao.png",
    "lat" : "-5.061452",
    "long" : "-42.827741",
    "name" : "CMEI Dagmar Mazza Fortes"
  },
  "-LuXxvK2cJPFMN_lumcV" : {
    "icon" : "assets/images/educacao.png",
    "lat" : "-4.949369",
    "long" : "-42.693701",
    "name" : "E.M. Cacimba Velha"
  },
  "-LuXxvK2cJPFMN_lumcW" : {
    "icon" : "assets/images/educacao.png",
    "lat" : "-4.905803",
    "long" : "-42.825686",
    "name" : "E.M. Cajazeiras"
  },
  "-LuXxvK2cJPFMN_lumcX" : {
    "icon" : "assets/images/educacao.png",
    "lat" : "-4.89351",
    "long" : "-42.873905",
    "name" : "CMEI Dalai Lama"
  },
  "-LuXxvK2cJPFMN_lumcY" : {
    "icon" : "assets/images/educacao.png",
    "lat" : "-5.062895",
    "long" : "-42.760655",
    "name" : "CMEI Danielzinho"
  },
  "-LuXxvK2cJPFMN_lumcZ" : {
    "icon" : "assets/images/educacao.png",
    "lat" : "-5.0734",
    "long" : "-42.794993",
    "name" : "CMEI Dom Miguel Câmara"
  },
  "-LuXxvK395roybgUldNx" : {
    "icon" : "assets/images/educacao.png",
    "lat" : "-5.023265",
    "long" : "-42.809002",
    "name" : "CMEI do Mocambinho"
  },
  "-LuXxvK395roybgUldNy" : {
    "icon" : "assets/images/educacao.png",
    "lat" : "-5.01276",
    "long" : "-42.773708",
    "name" : "CMEI Dona Maria de Jesus Araújo Silveira"
  },
  "-LuXxvK395roybgUldNz" : {
    "icon" : "assets/images/educacao.png",
    "lat" : "-5.038371",
    "long" : "-42.808426",
    "name" : "CMEI Dona Odínea"
  },
  "-LuXxvK395roybgUldO-" : {
    "icon" : "assets/images/educacao.png",
    "lat" : "-5.056154",
    "long" : "-42.730271",
    "name" : "CMEI Dom Avelar"
  },
  "-LuXxvK395roybgUldO0" : {
    "icon" : "assets/images/educacao.png",
    "lat" : "-4.884776",
    "long" : "-42.739444",
    "name" : "E.M. Campestre Norte"
  },
  "-LuXxvK4T7voWY-T8KTr" : {
    "icon" : "assets/images/educacao.png",
    "lat" : "-5.103105",
    "long" : "-42.755837",
    "name" : "CMEI Emerson de Jesus Silva"
  },
  "-LuXxvK4T7voWY-T8KTs" : {
    "icon" : "assets/images/educacao.png",
    "lat" : "-5.159972",
    "long" : "-42.778242",
    "name" : "CMEI Enilson Carvalho"
  },
  "-LuXxvK4T7voWY-T8KTt" : {
    "icon" : "assets/images/educacao.png",
    "lat" : "-5.085932",
    "long" : "-42.694077",
    "name" : "CMEI Érico Veríssimo"
  },
  "-LuXxvK4T7voWY-T8KTu" : {
    "icon" : "assets/images/educacao.png",
    "lat" : "-5.088391",
    "long" : "-42.73573",
    "name" : "CMEI Frei Damião"
  },
  "-LuXxvK52dxX0v3IZap0" : {
    "icon" : "assets/images/educacao.png",
    "lat" : "-5.1689501",
    "long" : "-42.7863836",
    "name" : "CMEI Francisca de Sousa Pacheco"
  },
  "-LuXxvK52dxX0v3IZap1" : {
    "icon" : "assets/images/educacao.png",
    "lat" : "-5.036491",
    "long" : "-42.745312",
    "name" : "E.M. Casa Meio Norte"
  },
  "-LuXxvK52dxX0v3IZap2" : {
    "icon" : "assets/images/educacao.png",
    "lat" : "-5.0350098",
    "long" : "-42.8182044",
    "name" : "CMEI Francisco de Assis"
  },
  "-LuXxvK64Rucl-_jBnij" : {
    "icon" : "assets/images/educacao.png",
    "lat" : "-5.04697",
    "long" : "-42.743176",
    "name" : "CMEI Geovane Prado"
  },
  "-LuXxvK64Rucl-_jBnik" : {
    "icon" : "assets/images/educacao.png",
    "lat" : "-5.113776",
    "long" : "-42.751824",
    "name" : "CMEI Gilca Vanessa"
  },
  "-LuXxvK64Rucl-_jBnil" : {
    "icon" : "assets/images/educacao.png",
    "lat" : "-5.0493826",
    "long" : "-42.8225027",
    "name" : "CMEI Helena Maria Rodrigues de Carvalho"
  },
  "-LuXxvK64Rucl-_jBnim" : {
    "icon" : "assets/images/educacao.png",
    "lat" : "-5.0633212",
    "long" : "-42.8364039",
    "name" : "CMEI Helena Medeiros"
  },
  "-LuXxvK64Rucl-_jBnin" : {
    "icon" : "assets/images/educacao.png",
    "lat" : "-5.155028",
    "long" : "-42.622725",
    "name" : "E.M. Centro dos Afonsinhos"
  },
  "-LuXxvK7Yc9NWrpXiKh0" : {
    "icon" : "assets/images/educacao.png",
    "lat" : "-5.141311",
    "long" : "-42.790433",
    "name" : "CMEI Hercilia Torres de Almeida"
  },
  "-LuXxvK7Yc9NWrpXiKh1" : {
    "icon" : "assets/images/educacao.png",
    "lat" : "-5.102433",
    "long" : "-42.79667",
    "name" : "CMEI Imaculada Conceição"
  },
  "-LuXxvK8pIJEppQziqOC" : {
    "icon" : "assets/images/educacao.png",
    "lat" : "-5.19063",
    "long" : "-42.77432",
    "name" : "CMEI Irmã Dulce"
  },
  "-LuXxvK8pIJEppQziqOD" : {
    "icon" : "assets/images/educacao.png",
    "lat" : "-5.141387",
    "long" : "-42.786249",
    "name" : "CMEI Jesus Diocesano"
  },
  "-LuXxvK9S4Phv2ESkAkR" : {
    "icon" : "assets/images/educacao.png",
    "lat" : "-5.101832",
    "long" : "-42.743201",
    "name" : "CMEI João Mendes Olimpio de Melo"
  },
  "-LuXxvK9S4Phv2ESkAkS" : {
    "icon" : "assets/images/educacao.png",
    "lat" : "-5.174513",
    "long" : "-42.777046",
    "name" : "CMEI João Nonon de Moura Fortes Ibiapina"
  },
  "-LuXxvK9S4Phv2ESkAkT" : {
    "icon" : "assets/images/educacao.png",
    "lat" : "-5.147212",
    "long" : "-42.694691",
    "name" : "CMEI João Paulo II"
  },
  "-LuXxvK9S4Phv2ESkAkU" : {
    "icon" : "assets/images/educacao.png",
    "lat" : "-5.0039925",
    "long" : "-42.7980025",
    "name" : "CMEI João Paulo dos Reis Veloso"
  },
  "-LuXxvK9S4Phv2ESkAkV" : {
    "icon" : "assets/images/educacao.png",
    "lat" : "-5.08438",
    "long" : "-42.819098",
    "name" : "CMEI Joel Ribeiro"
  },
  "-LuXxvKAaVLDwKLSFKJ3" : {
    "icon" : "assets/images/educacao.png",
    "lat" : "-5.0378118",
    "long" : "-42.7288075",
    "name" : "CMEI Jorge Amado"
  },
  "-LuXxvKAaVLDwKLSFKJ4" : {
    "icon" : "assets/images/educacao.png",
    "lat" : "-4.985285",
    "long" : "-42.826857",
    "name" : "CMEI José João de Magalhães Braga"
  },
  "-LuXxvKAaVLDwKLSFKJ5" : {
    "icon" : "assets/images/educacao.png",
    "lat" : "-5.0894043",
    "long" : "-42.7403337",
    "name" : "CMEI Julio Romão"
  },
  "-LuXxvKAaVLDwKLSFKJ6" : {
    "icon" : "assets/images/educacao.png",
    "lat" : "-5.068218",
    "long" : "-42.744463",
    "name" : "CMEI Ladeira do Uruguai"
  },
  "-LuXxvKAaVLDwKLSFKJ7" : {
    "icon" : "assets/images/educacao.png",
    "lat" : "-5.074482",
    "long" : "-42.812704",
    "name" : "CMEI Joffre do Rego Castelo Branco"
  },
  "-LuXxvKBxrDLeovUV9yF" : {
    "icon" : "assets/images/educacao.png",
    "lat" : "-5.044947",
    "long" : "-42.804221",
    "name" : "CMEI Louvor e Vida"
  },
  "-LuXxvKBxrDLeovUV9yG" : {
    "icon" : "assets/images/educacao.png",
    "lat" : "-5.138201",
    "long" : "-42.774999",
    "name" : "CMEI Luiz Gonzaga Pires"
  },
  "-LuXxvKBxrDLeovUV9yH" : {
    "icon" : "assets/images/educacao.png",
    "lat" : "-5.143433",
    "long" : "-42.779534",
    "name" : "CMEI Luterano"
  },
  "-LuXxvKBxrDLeovUV9yI" : {
    "icon" : "assets/images/educacao.png",
    "lat" : "-5.054058",
    "long" : "-42.761659",
    "name" : "CMEI Mahatma Gandhi"
  },
  "-LuXxvKBxrDLeovUV9yJ" : {
    "icon" : "assets/images/educacao.png",
    "lat" : "-5.0026418",
    "long" : "-42.8279383",
    "name" : "E.M. Clidenor de Freitas Santos"
  },
  "-LuXxvKCiFb2mtf9JTBj" : {
    "icon" : "assets/images/educacao.png",
    "lat" : "-5.04839",
    "long" : "-42.733057",
    "name" : "CMEI Madre Teresa de Calcutá"
  },
  "-LuXxvKCiFb2mtf9JTBk" : {
    "icon" : "assets/images/educacao.png",
    "lat" : "-5.116887",
    "long" : "-42.788453",
    "name" : "CMEI Marcos Vilaça"
  },
  "-LuXxvKCiFb2mtf9JTBl" : {
    "icon" : "assets/images/educacao.png",
    "lat" : "-5.058726",
    "long" : "-42.739349",
    "name" : "CMEI Maria Amélia Freitas Mendes de Oliveira"
  },
  "-LuXxvKDCs7nCkygDShN" : {
    "icon" : "assets/images/educacao.png",
    "lat" : "-5.098648",
    "long" : "-42.758043",
    "name" : "CMEI Maria José Arcoverde"
  },
  "-LuXxvKEUJ5RQ1A4JWGM" : {
    "icon" : "assets/images/educacao.png",
    "lat" : "-5.140844",
    "long" : "-42.747509",
    "name" : "CMEI Maria Alves da Silva Santos"
  },
  "-LuXxvKEUJ5RQ1A4JWGN" : {
    "icon" : "assets/images/educacao.png",
    "lat" : "-5.112057",
    "long" : "-42.759159",
    "name" : "CMEI Maria Augusta de Jesus"
  },
  "-LuXxvKEUJ5RQ1A4JWGO" : {
    "icon" : "assets/images/educacao.png",
    "lat" : "-5.121705",
    "long" : "-42.759712",
    "name" : "CMEI Menino Jesus"
  },
  "-LuXxvKF9BKp87u6jsWl" : {
    "icon" : "assets/images/educacao.png",
    "lat" : "-5.011175",
    "long" : "-42.780609",
    "name" : "CMEI Marina Soares da Silva"
  },
  "-LuXxvKF9BKp87u6jsWm" : {
    "icon" : "assets/images/educacao.png",
    "lat" : "-5.115467",
    "long" : "-42.790792",
    "name" : "CMEI Mirian Furtado"
  },
  "-LuXxvKF9BKp87u6jsWn" : {
    "icon" : "assets/images/educacao.png",
    "lat" : "-4.994868",
    "long" : "-42.821489",
    "name" : "CMEI Monte Verde"
  },
  "-LuXxvKF9BKp87u6jsWo" : {
    "icon" : "assets/images/educacao.png",
    "lat" : "-5.051632",
    "long" : "-42.808247",
    "name" : "CMEI Natureza"
  },
  "-LuXxvKGme-gXRreeMMV" : {
    "icon" : "assets/images/educacao.png",
    "lat" : "-5.10699",
    "long" : "-42.770771",
    "name" : "CMEI Nossa Srª da Guia"
  },
  "-LuXxvKGme-gXRreeMMW" : {
    "icon" : "assets/images/educacao.png",
    "lat" : "-5.113346",
    "long" : "-42.783894",
    "name" : "CMEI Nossa Srª da Paz"
  },
  "-LuXxvKGme-gXRreeMMX" : {
    "icon" : "assets/images/educacao.png",
    "lat" : "-5.118586",
    "long" : "-42.780369",
    "name" : "CMEI Nossa Srª Maria Auxiliadora"
  },
  "-LuXxvKGme-gXRreeMMY" : {
    "icon" : "assets/images/educacao.png",
    "lat" : "-5.009661",
    "long" : "-42.795497",
    "name" : "CMEI Nova Teresina"
  },
  "-LuXxvKGme-gXRreeMMZ" : {
    "icon" : "assets/images/educacao.png",
    "lat" : "-5.01107",
    "long" : "-42.795086",
    "name" : "E.M. Elias Ximenes do Prado Júnior"
  },
  "-LuXxvKGme-gXRreeMM_" : {
    "icon" : "assets/images/educacao.png",
    "lat" : "-5.146336",
    "long" : "-42.787495",
    "name" : "E.M. Esther Couto"
  },
  "-LuXxvKHKDQaz2lfwYvH" : {
    "icon" : "assets/images/educacao.png",
    "lat" : "-5.101652",
    "long" : "-42.725559",
    "name" : "CMEI Novo Milênio"
  },
  "-LuXxvKHKDQaz2lfwYvI" : {
    "icon" : "assets/images/educacao.png",
    "lat" : "-5.099861",
    "long" : "-42.707544",
    "name" : "CMEI Padre Pedro Balzi"
  },
  "-LuXxvKHKDQaz2lfwYvJ" : {
    "icon" : "assets/images/educacao.png",
    "lat" : "-5.007791",
    "long" : "-42.774491",
    "name" : "CMEI Parque Anita Ferraz"
  },
  "-LuXxvKIy6csyA2gzIKe" : {
    "icon" : "assets/images/educacao.png",
    "lat" : "-5.159355",
    "long" : "-42.764728",
    "name" : "CMEI Parque Dagmar Mazza"
  },
  "-LuXxvKIy6csyA2gzIKf" : {
    "icon" : "assets/images/educacao.png",
    "lat" : "-5.120052",
    "long" : "-42.754966",
    "name" : "CMEI Parque Esperança"
  },
  "-LuXxvKIy6csyA2gzIKg" : {
    "icon" : "assets/images/educacao.png",
    "lat" : "-4.989757",
    "long" : "-42.834009",
    "name" : "CMEI Parque Firmino Filho"
  },
  "-LuXxvKIy6csyA2gzIKh" : {
    "icon" : "assets/images/educacao.png",
    "lat" : "-5.054288",
    "long" : "-42.742006",
    "name" : "CMEI Parque Mão Santa"
  },
  "-LuXxvKIy6csyA2gzIKi" : {
    "icon" : "assets/images/educacao.png",
    "lat" : "-5.274666",
    "long" : "-42.800167",
    "name" : "E.M. Nossa Senhora do Perpetuo Socorro"
  },
  "-LuXxvKO3iXw-G3RJofZ" : {
    "icon" : "assets/images/educacao.png",
    "lat" : "-5.130034",
    "long" : "-42.799668",
    "name" : "CMEI Parque São João"
  },
  "-LuXxvKO3iXw-G3RJof_" : {
    "icon" : "assets/images/educacao.png",
    "lat" : "-5.170942",
    "long" : "-42.777843",
    "name" : "CMEI Parque Vitória"
  },
  "-LuXxvKPcfIyDA9luOXW" : {
    "icon" : "assets/images/educacao.png",
    "lat" : "-4.986507",
    "long" : "-42.835579",
    "name" : "CMEI Parque Wall Ferraz"
  },
  "-LuXxvKPcfIyDA9luOXX" : {
    "icon" : "assets/images/educacao.png",
    "lat" : "-5.106614",
    "long" : "-42.803328",
    "name" : "CMEI Pedro Mendes Ribeiro"
  },
  "-LuXxvKPcfIyDA9luOXY" : {
    "icon" : "assets/images/educacao.png",
    "lat" : "-5.035665",
    "long" : "-42.829373",
    "name" : "CMEI Peixe Vivo"
  },
  "-LuXxvKQuU48GiJL6PQ8" : {
    "icon" : "assets/images/educacao.png",
    "lat" : "-5.118563",
    "long" : "-42.792026",
    "name" : "CMEI Presidente Costa e Silva"
  },
  "-LuXxvKQuU48GiJL6PQ9" : {
    "icon" : "assets/images/educacao.png",
    "lat" : "-5.054321",
    "long" : "-42.738454",
    "name" : "CMEI Planalto Uruguai"
  },
  "-LuXxvKQuU48GiJL6PQA" : {
    "icon" : "assets/images/educacao.png",
    "lat" : "-5.080353",
    "long" : "-42.776957",
    "name" : "CMEI Presidente Médice"
  },
  "-LuXxvKQuU48GiJL6PQB" : {
    "icon" : "assets/images/educacao.png",
    "lat" : "-5.138046",
    "long" : "-42.782222",
    "name" : "CMEI Prof. Francisco das Chagas Venâncio"
  },
  "-LuXxvKR5YC3KWty0Hi1" : {
    "icon" : "assets/images/educacao.png",
    "lat" : "-5.008012",
    "long" : "-42.781534",
    "name" : "CMEI Prof. Gilberto Ribeiro da Silva"
  },
  "-LuXxvKR5YC3KWty0Hi2" : {
    "icon" : "assets/images/educacao.png",
    "lat" : "-5.062358",
    "long" : "-42.751786",
    "name" : "CMEI Prof. Julio César Araújo de Oliveira"
  },
  "-LuXxvKR5YC3KWty0Hi3" : {
    "icon" : "assets/images/educacao.png",
    "lat" : "-5.277067",
    "long" : "-42.798679",
    "name" : "CMEI Prof. Wall Ferraz"
  },
  "-LuXxvKSB-2kf84ImkCU" : {
    "icon" : "assets/images/educacao.png",
    "lat" : "-5.0923989",
    "long" : "-42.790263",
    "name" : "CMEI Profª Antônia Nonato"
  },
  "-LuXxvKSB-2kf84ImkCV" : {
    "icon" : "assets/images/educacao.png",
    "lat" : "-4.994743",
    "long" : "-42.832721",
    "name" : "CMEI Profª Hilda Maria Lemos dos Santos"
  },
  "-LuXxvKSB-2kf84ImkCW" : {
    "icon" : "assets/images/educacao.png",
    "lat" : "-5.157453",
    "long" : "-42.766385",
    "name" : "CMEI Profª Hildete"
  },
  "-LuXxvKSB-2kf84ImkCX" : {
    "icon" : "assets/images/educacao.png",
    "lat" : "-5.147708",
    "long" : "-42.794757",
    "name" : "CMEI Profª Maria do Carmo Nunes"
  },
  "-LuXxvKTJZZtvHLfykwg" : {
    "icon" : "assets/images/educacao.png",
    "lat" : "-4.980131",
    "long" : "-42.812866",
    "name" : "E.M. Poeta da Costa e Silva"
  },
  "-LuXxvKTJZZtvHLfykwh" : {
    "icon" : "assets/images/educacao.png",
    "lat" : "-5.04735",
    "long" : "-42.759049",
    "name" : "CMEI Profª Maria Aldineia Rodrigues da Silva"
  },
  "-LuXxvKTJZZtvHLfykwi" : {
    "icon" : "assets/images/educacao.png",
    "lat" : "-5.043076",
    "long" : "-42.754232",
    "name" : "CMEI Profª Raimunda Martins Nunes Portela"
  },
  "-LuXxvKTJZZtvHLfykwj" : {
    "icon" : "assets/images/educacao.png",
    "lat" : "-5.0466435",
    "long" : "-42.745919",
    "name" : "CMEI Profª Roseana Maria M. de Lima"
  },
  "-LuXxvKUokdvQ5aWhhel" : {
    "icon" : "assets/images/educacao.png",
    "lat" : "-5.030134",
    "long" : "-42.739232",
    "name" : "CMEI Profª Maria do Amparo F. de Alencar"
  },
  "-LuXxvKUokdvQ5aWhhem" : {
    "icon" : "assets/images/educacao.png",
    "lat" : "-5.004945",
    "long" : "-42.82325",
    "name" : "CMEI Profª Zelia Calixto de Araújo Sousa"
  },
  "-LuXxvKUokdvQ5aWhhen" : {
    "icon" : "assets/images/educacao.png",
    "lat" : "-4.9832295",
    "long" : "-42.8161619",
    "name" : "CMEI Raquel de Queiroz"
  },
  "-LuXxvKVrpweH8R89cw2" : {
    "icon" : "assets/images/educacao.png",
    "lat" : "-5.117983",
    "long" : "-42.709301",
    "name" : "CMEI Recanto dos Pássaros"
  },
  "-LuXxvKVrpweH8R89cw3" : {
    "icon" : "assets/images/educacao.png",
    "lat" : "-5.136792",
    "long" : "-42.75195",
    "name" : "CMEI Rebeca Ribeiro Nogueira"
  },
  "-LuXxvKVrpweH8R89cw4" : {
    "icon" : "assets/images/educacao.png",
    "lat" : "-5.149623",
    "long" : "-42.783976",
    "name" : "CMEI Renatinha"
  },
  "-LuXxvKWGEHaLm4JqRas" : {
    "icon" : "assets/images/educacao.png",
    "lat" : "-5.164065",
    "long" : "-42.785513",
    "name" : "CMEI Residencial Betinho"
  },
  "-LuXxvKWGEHaLm4JqRat" : {
    "icon" : "assets/images/educacao.png",
    "lat" : "-5.19372",
    "long" : "-42.763571",
    "name" : "CMEI Residencial Esplanada"
  },
  "-LuXxvKWGEHaLm4JqRau" : {
    "icon" : "assets/images/educacao.png",
    "lat" : "-5.113019",
    "long" : "-42.736924",
    "name" : "CMEI Residencial Firmino Filho"
  },
  "-LuXxvKWGEHaLm4JqRav" : {
    "icon" : "assets/images/educacao.png",
    "lat" : "-5.0026655",
    "long" : "-42.8330742",
    "name" : "CMEI Rubem Alves"
  },
  "-LuXxvKXj_WMOfs55HdZ" : {
    "icon" : "assets/images/educacao.png",
    "lat" : "-5.192974",
    "long" : "-42.782887",
    "name" : "CMEI Ruth Correia Leite Cardoso"
  },
  "-LuXxvKXj_WMOfs55Hd_" : {
    "icon" : "assets/images/educacao.png",
    "lat" : "-5.0888412",
    "long" : "-42.6663134",
    "name" : "CMEI Sagrado Coração de Jesus"
  },
  "-LuXxvKXj_WMOfs55Hda" : {
    "icon" : "assets/images/educacao.png",
    "lat" : "-5.112273",
    "long" : "-42.782266",
    "name" : "E.M. Prof. Alcides Lebre"
  },
  "-LuXxvKYmZhMMnHBB4lm" : {
    "icon" : "assets/images/educacao.png",
    "lat" : "-5.043823",
    "long" : "-42.729764",
    "name" : "CMEI Santa Bárbara"
  },
  "-LuXxvKYmZhMMnHBB4ln" : {
    "icon" : "assets/images/educacao.png",
    "lat" : "-5.195953",
    "long" : "-42.76368",
    "name" : "CMEI Santa Francisca Cabrine"
  },
  "-LuXxvKYmZhMMnHBB4lo" : {
    "icon" : "assets/images/educacao.png",
    "lat" : "-5.176353",
    "long" : "-42.763235",
    "name" : "CMEI Santa Helena"
  },
  "-LuXxvKZruG8I8G4K_oS" : {
    "icon" : "assets/images/educacao.png",
    "lat" : "-5.059612",
    "long" : "-42.779943",
    "name" : "CMEI Santa Maria"
  },
  "-LuXxvKZruG8I8G4K_oT" : {
    "icon" : "assets/images/educacao.png",
    "lat" : "-4.982584",
    "long" : "-42.830282",
    "name" : "CMEI Santa Maria da Codipi"
  },
  "-LuXxvKZruG8I8G4K_oU" : {
    "icon" : "assets/images/educacao.png",
    "lat" : "-4.991887",
    "long" : "-42.841159",
    "name" : "CMEI Santa Maria das Vassouras"
  },
  "-LuXxvKZruG8I8G4K_oV" : {
    "icon" : "assets/images/educacao.png",
    "lat" : "-5.159664",
    "long" : "-42.772941",
    "name" : "CMEI Santo Antônio"
  },
  "-LuXxvK_iOwFzsSestP7" : {
    "icon" : "assets/images/educacao.png",
    "lat" : "-4.907429",
    "long" : "-42.790021",
    "name" : "CMEI São Vicente"
  },
  "-LuXxvK_iOwFzsSestP8" : {
    "icon" : "assets/images/educacao.png",
    "lat" : "-4.9602974",
    "long" : "-42.7308355",
    "name" : "CMEI Tapuia"
  },
  "-LuXxvK_iOwFzsSestP9" : {
    "icon" : "assets/images/educacao.png",
    "lat" : "-5.084679",
    "long" : "-42.813053",
    "name" : "CMEI Tereza Cristina"
  },
  "-LuXxvKarLrT5jbA0DX6" : {
    "icon" : "assets/images/educacao.png",
    "lat" : "-5.095047",
    "long" : "-42.721291",
    "name" : "CMEI Teresinha de Jesus e Silva"
  },
  "-LuXxvKbSHDSND2E0hJc" : {
    "icon" : "assets/images/educacao.png",
    "lat" : "-5.060097",
    "long" : "-42.836256",
    "name" : "CMEI Tia Alice"
  },
  "-LuXxvKbSHDSND2E0hJd" : {
    "icon" : "assets/images/educacao.png",
    "lat" : "-5.1755802",
    "long" : "-42.7905777",
    "name" : "CMEI Tia Anita"
  },
  "-LuXxvKbSHDSND2E0hJe" : {
    "icon" : "assets/images/educacao.png",
    "lat" : "-5.0484",
    "long" : "-42.812341",
    "name" : "CMEI Tia Anita Gayoso"
  },
  "-LuXxvKctjDBeJKj8EYL" : {
    "icon" : "assets/images/educacao.png",
    "lat" : "-5.035492",
    "long" : "-42.823329",
    "name" : "CMEI Tia Carlota Maria de Carvalho"
  },
  "-LuXxvKctjDBeJKj8EYM" : {
    "icon" : "assets/images/educacao.png",
    "lat" : "-5.109451",
    "long" : "-42.758447",
    "name" : "CMEI Tia Eutália"
  },
  "-LuXxvKctjDBeJKj8EYN" : {
    "icon" : "assets/images/educacao.png",
    "lat" : "-5.022791",
    "long" : "-42.7421154",
    "name" : "CMEI Tia Fanny"
  },
  "-LuXxvKctjDBeJKj8EYO" : {
    "icon" : "assets/images/educacao.png",
    "lat" : "-5.160997",
    "long" : "-42.787011",
    "name" : "CMEI Tia Francisquinha"
  },
  "-LuXxvKdZ8Oiy4nv8Iw9" : {
    "icon" : "assets/images/educacao.png",
    "lat" : "-5.119251",
    "long" : "-42.808063",
    "name" : "CMEI Tia Graça Nery"
  },
  "-LuXxvKdZ8Oiy4nv8IwA" : {
    "icon" : "assets/images/educacao.png",
    "lat" : "-5.05175",
    "long" : "-42.838059",
    "name" : "CMEI Tia Jane"
  },
  "-LuXxvKdZ8Oiy4nv8IwB" : {
    "icon" : "assets/images/educacao.png",
    "lat" : "-5.044278",
    "long" : "-42.812499",
    "name" : "CMEI Tia Luluzinha"
  },
  "-LuXxvKePMHwq43rZEKN" : {
    "icon" : "assets/images/educacao.png",
    "lat" : "-5.09555",
    "long" : "-42.790347",
    "name" : "CMEI Tia Lygia"
  },
  "-LuXxvKgg5L0vsDrk6ia" : {
    "icon" : "assets/images/educacao.png",
    "lat" : "-5.040088",
    "long" : "-42.821925",
    "name" : "CMEI Tia Kininha"
  },
  "-LuXxvKgg5L0vsDrk6ib" : {
    "icon" : "assets/images/educacao.png",
    "lat" : "-5.052774",
    "long" : "-42.833404",
    "name" : "CMEI Tia Mônica"
  },
  "-LuXxvKh9FNoSK0j6QeV" : {
    "icon" : "assets/images/educacao.png",
    "lat" : "-5.0247056",
    "long" : "-42.8093146",
    "name" : "CMEI Tia Myriam III"
  },
  "-LuXxvKh9FNoSK0j6QeW" : {
    "icon" : "assets/images/educacao.png",
    "lat" : "-5.044624",
    "long" : "-42.834693",
    "name" : "CMEI Tia Regina Napoleão"
  },
  "-LuXxvKh9FNoSK0j6QeX" : {
    "icon" : "assets/images/educacao.png",
    "lat" : "-4.913036",
    "long" : "-42.769825",
    "name" : "CMEI Tia Sabina"
  },
  "-LuXxvKi_QzuUwwyMN0Z" : {
    "icon" : "assets/images/educacao.png",
    "lat" : "-5.052202",
    "long" : "-42.813942",
    "name" : "CMEI Tia Tânia"
  },
  "-LuXxvKi_QzuUwwyMN0_" : {
    "icon" : "assets/images/educacao.png",
    "lat" : "-5.056304",
    "long" : "-42.7655",
    "name" : "CMEI Tia Zoraide Almeida"
  },
  "-LuXxvKi_QzuUwwyMN0a" : {
    "icon" : "assets/images/educacao.png",
    "lat" : "-5.153436",
    "long" : "-42.687715",
    "name" : "CMEI Tio Fernando Santiago"
  },
  "-LuXxvKjkU-vIm28mPNh" : {
    "icon" : "assets/images/educacao.png",
    "lat" : "-5.0243508",
    "long" : "-42.7471914",
    "name" : "CMEI Tom Jobim"
  },
  "-LuXxvKjkU-vIm28mPNi" : {
    "icon" : "assets/images/educacao.png",
    "lat" : "-5.1128083",
    "long" : "-42.8141038",
    "name" : "CMEI Valquiria Ferraz Sousa"
  },
  "-LuXxvKjkU-vIm28mPNj" : {
    "icon" : "assets/images/educacao.png",
    "lat" : "-5.046412",
    "long" : "-42.751805",
    "name" : "CMEI Vila Bandeirantes"
  },
  "-LuXxvKjkU-vIm28mPNk" : {
    "icon" : "assets/images/educacao.png",
    "lat" : "-5.1535547",
    "long" : "-42.7922779",
    "name" : "CMEI Vila Carolina Silva"
  },
  "-LuXxvKk3k26-in2c9FE" : {
    "icon" : "assets/images/educacao.png",
    "lat" : "-5.1548106",
    "long" : "-42.7918197",
    "name" : "CMEI Vila Clemente Fortes"
  },
  "-LuXxvKk3k26-in2c9FF" : {
    "icon" : "assets/images/educacao.png",
    "lat" : "-5.129714",
    "long" : "-42.7778917",
    "name" : "CMEI Vila Concórdia"
  },
  "-LuXxvKlNYyyLwQFpX07" : {
    "icon" : "assets/images/educacao.png",
    "lat" : "-5.011321",
    "long" : "-42.786432",
    "name" : "CMEI Vila do Avião"
  },
  "-LuXxvKmZ1Zl3_8LX70v" : {
    "icon" : "assets/images/educacao.png",
    "lat" : "-5.098933",
    "long" : "-42.762171",
    "name" : "CMEI Vila Mariana Fortes"
  },
  "-LuXxvKmZ1Zl3_8LX70w" : {
    "icon" : "assets/images/educacao.png",
    "lat" : "-5.0592219",
    "long" : "-42.8283348",
    "name" : "CMEI Vila Pantanal II"
  },
  "-LuXxvKmZ1Zl3_8LX70x" : {
    "icon" : "assets/images/educacao.png",
    "lat" : "-5.110492",
    "long" : "-42.735481",
    "name" : "CMEI Vila Poty II"
  },
  "-LuXxvKnBbEVHB9xvIDI" : {
    "icon" : "assets/images/educacao.png",
    "lat" : "-5.155733",
    "long" : "-42.788842",
    "name" : "CMEI Vila Santa Cruz"
  },
  "-LuXxvKnBbEVHB9xvIDJ" : {
    "icon" : "assets/images/educacao.png",
    "lat" : "-5.159795",
    "long" : "-42.789891",
    "name" : "E.M. Santa Fé"
  },
  "-LuXxvKnBbEVHB9xvIDK" : {
    "icon" : "assets/images/educacao.png",
    "lat" : "-5.14538",
    "long" : "-42.770196",
    "name" : "CMEI Vila Tiradentes"
  },
  "-LuXxvKnBbEVHB9xvIDL" : {
    "icon" : "assets/images/educacao.png",
    "lat" : "-5.154102",
    "long" : "-42.782626",
    "name" : "CMEI Vovó Laís"
  },
  "-LuXxvKoIP8tJzvJwF1Z" : {
    "icon" : "assets/images/educacao.png",
    "lat" : "-5.0622402",
    "long" : "-42.8279549",
    "name" : "CMEI Zélia Gattai Amado"
  },
  "-LuXxvKoIP8tJzvJwF1_" : {
    "icon" : "assets/images/educacao.png",
    "lat" : "-5.452408",
    "long" : "-42.785079",
    "name" : "E.M. Alice Pires do Nascimento"
  },
  "-LuXxvKoIP8tJzvJwF1a" : {
    "icon" : "assets/images/educacao.png",
    "lat" : "-5.105344",
    "long" : "-42.74977",
    "name" : "E.M. Altina Castelo Branco"
  },
  "-LuXxvKoIP8tJzvJwF1b" : {
    "icon" : "assets/images/educacao.png",
    "lat" : "-5.208787",
    "long" : "-42.711588",
    "name" : "E.M. Angola"
  },
  "-LuXxvKpEM4HSmqjvEa-" : {
    "icon" : "assets/images/educacao.png",
    "lat" : "-5.1755549",
    "long" : "-42.789477",
    "name" : "E.M. Angelim"
  },
  "-LuXxvKpEM4HSmqjvEa0" : {
    "icon" : "assets/images/educacao.png",
    "lat" : "-5.051397",
    "long" : "-42.837961",
    "name" : "E.M. Antônio Dilson Fernandes"
  },
  "-LuXxvKpEM4HSmqjvEa1" : {
    "icon" : "assets/images/educacao.png",
    "lat" : "-5.095282",
    "long" : "-42.72139",
    "name" : "E.M. Antônio Ferraz"
  },
  "-LuXxvKqxPDU2F_XKqeJ" : {
    "icon" : "assets/images/educacao.png",
    "lat" : "-5.207854",
    "long" : "-42.614389",
    "name" : "E M Antônio Leonez"
  },
  "-LuXxvKqxPDU2F_XKqeK" : {
    "icon" : "assets/images/educacao.png",
    "lat" : "-4.8799575",
    "long" : "-42.7880719",
    "name" : "E.M. Antônio Terto"
  },
  "-LuXxvKqxPDU2F_XKqeL" : {
    "icon" : "assets/images/educacao.png",
    "lat" : "-5.157457",
    "long" : "-42.795959",
    "name" : "E.M. Areias"
  },
  "-LuXxvKqxPDU2F_XKqeM" : {
    "icon" : "assets/images/educacao.png",
    "lat" : "-5.2511311",
    "long" : "-42.6704047",
    "name" : "E.M. Areolino Leôncio da Silva"
  },
  "-LuXxvKqxPDU2F_XKqeN" : {
    "icon" : "assets/images/educacao.png",
    "lat" : "-5.1623545",
    "long" : "-42.6887784",
    "name" : "E.M. Arthur Medeiros de Carneiro"
  },
  "-LuXxvKrCnm_tOmXsLaX" : {
    "icon" : "assets/images/educacao.png",
    "lat" : "-4.92911",
    "long" : "-42.855743",
    "name" : "E.M. Aurino Nunes"
  },
  "-LuXxvKrCnm_tOmXsLaY" : {
    "icon" : "assets/images/educacao.png",
    "lat" : "-4.96644",
    "long" : "-42.747388",
    "name" : "E.M. Baixão do Carlos"
  },
  "-LuXxvKrCnm_tOmXsLaZ" : {
    "icon" : "assets/images/educacao.png",
    "lat" : "-5.093997",
    "long" : "-42.738676",
    "name" : "E.M. Barjas Negri"
  },
  "-LuXxvKrCnm_tOmXsLa_" : {
    "icon" : "assets/images/educacao.png",
    "lat" : "-5.070362",
    "long" : "-42.826872",
    "name" : "E.M. Bezerra de Menezes"
  },
  "-LuXxvKsbZLfxWor7Lkv" : {
    "icon" : "assets/images/educacao.png",
    "lat" : "-5.1261",
    "long" : "-42.709218",
    "name" : "E.M. Bom Princípio"
  },
  "-LuXxvKsbZLfxWor7Lkw" : {
    "icon" : "assets/images/educacao.png",
    "lat" : "-5.022166",
    "long" : "-42.785647",
    "name" : "E.M. Clodoaldo Freitas"
  },
  "-LuXxvKsbZLfxWor7Lkx" : {
    "icon" : "assets/images/educacao.png",
    "lat" : "-4.892529",
    "long" : "-42.878195",
    "name" : "E.M. Conselheiro Saraiva"
  },
  "-LuXxvKtP51LQYvqo5f_" : {
    "icon" : "assets/images/educacao.png",
    "lat" : "-4.908162",
    "long" : "-42.707244",
    "name" : "E.M. Coração de Jesus"
  },
  "-LuXxvKtP51LQYvqo5fa" : {
    "icon" : "assets/images/educacao.png",
    "lat" : "-5.561325",
    "long" : "-42.862522",
    "name" : "E.M. Coronel Boa Vista"
  },
  "-LuXxvKtP51LQYvqo5fb" : {
    "icon" : "assets/images/educacao.png",
    "lat" : "-5.11238",
    "long" : "-42.633348",
    "name" : "E.M. Coronel Pedro Borges"
  },
  "-LuXxvKtP51LQYvqo5fc" : {
    "icon" : "assets/images/educacao.png",
    "lat" : "-5.009429",
    "long" : "-42.774963",
    "name" : "E.M. Delfina Borralho Boa Vista"
  },
  "-LuXxvKuOXVK9Oruy3KS" : {
    "icon" : "assets/images/educacao.png",
    "lat" : "-5.0390386",
    "long" : "-42.806325",
    "name" : "E.M Delmira Coelho Machado"
  },
  "-LuXxvKuOXVK9Oruy3KT" : {
    "icon" : "assets/images/educacao.png",
    "lat" : "-4.938863",
    "long" : "-42.635231",
    "name" : "E.M. Deoclécio Carvalho"
  },
  "-LuXxvKuOXVK9Oruy3KU" : {
    "icon" : "assets/images/educacao.png",
    "lat" : "-5.061299",
    "long" : "-42.830698",
    "name" : "E.M. Deputado Antônio Gayoso"
  },
  "-LuXxvKuOXVK9Oruy3KV" : {
    "icon" : "assets/images/educacao.png",
    "lat" : "-5.046387",
    "long" : "-42.752346",
    "name" : "E.M. Deputado Francílio Almeida"
  },
  "-LuXxvKvFj7W7yfWzq24" : {
    "icon" : "assets/images/educacao.png",
    "lat" : "-5.092577",
    "long" : "-42.730865",
    "name" : "E.M. Deputado Humberto Reis da Silveira"
  },
  "-LuXxvKvFj7W7yfWzq25" : {
    "icon" : "assets/images/educacao.png",
    "lat" : "-5.190113",
    "long" : "-42.773953",
    "name" : "E.M. Dom Helder Câmara"
  },
  "-LuXxvKvFj7W7yfWzq26" : {
    "icon" : "assets/images/educacao.png",
    "lat" : "-5.041458",
    "long" : "-42.83144",
    "name" : "E.M. Domingos Afonso Mafrense"
  },
  "-LuXxvKvFj7W7yfWzq27" : {
    "icon" : "assets/images/educacao.png",
    "lat" : "-5.074598",
    "long" : "-42.626372",
    "name" : "E.M. Dona Izabel Pereira"
  },
  "-LuXxvKvFj7W7yfWzq28" : {
    "icon" : "assets/images/educacao.png",
    "lat" : "-5.073075",
    "long" : "-42.813566",
    "name" : "E.M. Euripedes de Aguiar"
  },
  "-LuXxvKwI3VcdxT5QeJD" : {
    "icon" : "assets/images/educacao.png",
    "lat" : "-5.119099",
    "long" : "-42.761758",
    "name" : "E.M. Extrema"
  },
  "-LuXxvKwI3VcdxT5QeJE" : {
    "icon" : "assets/images/educacao.png",
    "lat" : "-4.915056",
    "long" : "-42.813114",
    "name" : "E, M. Fazenda Soares"
  },
  "-LuXxvKwI3VcdxT5QeJF" : {
    "icon" : "assets/images/educacao.png",
    "lat" : "-5.049024",
    "long" : "-42.759287",
    "name" : "E.M. Francisco Prado"
  },
  "-LuXxvKwI3VcdxT5QeJG" : {
    "icon" : "assets/images/educacao.png",
    "lat" : "-5.039966",
    "long" : "-42.823169",
    "name" : "E.M. Galileu Veloso"
  },
  "-LuXxvKxyIYbMRdR0Ehv" : {
    "icon" : "assets/images/educacao.png",
    "lat" : "-4.995735",
    "long" : "-42.832096",
    "name" : "E.M. Governador Chagas Rodrigues"
  },
  "-LuXxvKxyIYbMRdR0Ehw" : {
    "icon" : "assets/images/educacao.png",
    "lat" : "-5.232306",
    "long" : "-42.675137",
    "name" : "E.M. Tomas de Oliveira Lopes"
  },
  "-LuXxvKxyIYbMRdR0Ehx" : {
    "icon" : "assets/images/educacao.png",
    "lat" : "-5.185236",
    "long" : "-42.741515",
    "name" : "E.M. Graciliano Ramos"
  },
  "-LuXxvKyutlweTkdJ91Q" : {
    "icon" : "assets/images/educacao.png",
    "lat" : "-4.963614",
    "long" : "-42.769017",
    "name" : "E.M. Gurupa de Baixo"
  },
  "-LuXxvKz7jfdA3CaZesU" : {
    "icon" : "assets/images/educacao.png",
    "lat" : "-4.978193",
    "long" : "-42.772753",
    "name" : "E.M. Grupa de Cima"
  },
  "-LuXxvKz7jfdA3CaZesV" : {
    "icon" : "assets/images/educacao.png",
    "lat" : "-5.172106",
    "long" : "-42.77398",
    "name" : "E.M. H. Dobal"
  },
  "-LuXxvKz7jfdA3CaZesW" : {
    "icon" : "assets/images/educacao.png",
    "lat" : "-4.908541",
    "long" : "-42.790017",
    "name" : "E.M. Hermelinda de Castro"
  },
  "-LuXxvL-0QsNZ81mnf24" : {
    "icon" : "assets/images/educacao.png",
    "lat" : "-5.037531",
    "long" : "-42.830236",
    "name" : "E.M. Iolanda Raulino"
  },
  "-LuXxvL-0QsNZ81mnf25" : {
    "icon" : "assets/images/educacao.png",
    "lat" : "-5.156399",
    "long" : "-42.767317",
    "name" : "E.M. Irmã Dulce"
  },
  "-LuXxvL0OxbHDRFtR9Ka" : {
    "icon" : "assets/images/educacao.png",
    "lat" : "-5.014844",
    "long" : "-42.777604",
    "name" : "E.M. Itamar de Sousa Brito"
  },
  "-LuXxvL0OxbHDRFtR9Kb" : {
    "icon" : "assets/images/educacao.png",
    "lat" : "-5.138889",
    "long" : "-42.731612",
    "name" : "E.M. João Paulo I"
  },
  "-LuXxvL1By3rzUrN3bAq" : {
    "icon" : "assets/images/educacao.png",
    "lat" : "-4.928016",
    "long" : "-42.766589",
    "name" : "E.M. Joaquim Marinho de Macedo"
  },
  "-LuXxvL6o5rE59-tnHU2" : {
    "icon" : "assets/images/educacao.png",
    "lat" : "-5.052343",
    "long" : "-42.684647",
    "name" : "E.M. Joca Vieira"
  },
  "-LuXxvL76I6o4qR_6Vz4" : {
    "icon" : "assets/images/educacao.png",
    "lat" : "-5.030483",
    "long" : "-42.738927",
    "name" : "E.M. Jorn. Deoclecio Dantas"
  },
  "-LuXxvL76I6o4qR_6Vz5" : {
    "icon" : "assets/images/educacao.png",
    "lat" : "-5.15077",
    "long" : "-42.755382",
    "name" : "E.M. Jorn. João Emílio Falcão"
  },
  "-LuXxvL9sshzLmsxxYIa" : {
    "icon" : "assets/images/educacao.png",
    "lat" : "-5.115572",
    "long" : "-42.810907",
    "name" : "E.M. José Auto de Abreu"
  },
  "-LuXxvL9sshzLmsxxYIb" : {
    "icon" : "assets/images/educacao.png",
    "lat" : "-4.988028",
    "long" : "-42.830661",
    "name" : "E.M. José Gomes Campos"
  },
  "-LuXxvLAgS3_ayhFE9DE" : {
    "icon" : "assets/images/educacao.png",
    "lat" : "-4.963653",
    "long" : "-42.792422",
    "name" : "E.M. José Ivan Filho"
  },
  "-LuXxvLAgS3_ayhFE9DF" : {
    "icon" : "assets/images/educacao.png",
    "lat" : "-5.0596637",
    "long" : "-42.827774",
    "name" : "E.M. José Nelson de Carvalho"
  },
  "-LuXxvLAgS3_ayhFE9DG" : {
    "icon" : "assets/images/educacao.png",
    "lat" : "-4.898956",
    "long" : "-42.750181",
    "name" : "E.M. Laurindo de Castro"
  },
  "-LuXxvLAgS3_ayhFE9DH" : {
    "icon" : "assets/images/educacao.png",
    "lat" : "-5.0499784",
    "long" : "-42.759733",
    "name" : "E.M. Lea Leal"
  },
  "-LuXxvLBpoPuAvqp0Ho8" : {
    "icon" : "assets/images/educacao.png",
    "lat" : "-5.222218",
    "long" : "-42.630608",
    "name" : "E.M. Limoeiro"
  },
  "-LuXxvLBpoPuAvqp0Ho9" : {
    "icon" : "assets/images/educacao.png",
    "lat" : "-5.049021",
    "long" : "-42.763731",
    "name" : "E.M. Lindamir Lima"
  },
  "-LuXxvLBpoPuAvqp0HoA" : {
    "icon" : "assets/images/educacao.png",
    "lat" : "-5.129215",
    "long" : "-42.790448",
    "name" : "E.M. Luís Fortes"
  },
  "-LuXxvLBpoPuAvqp0HoB" : {
    "icon" : "assets/images/educacao.png",
    "lat" : "-5.1103462",
    "long" : "-42.7606981",
    "name" : "E.M. Lunalva Costa"
  },
  "-LuXxvLCqy7so_CPyFXL" : {
    "icon" : "assets/images/educacao.png",
    "lat" : "-5.15908",
    "long" : "-42.763819",
    "name" : "E.M. Lysandro Tito de Oliveira"
  },
  "-LuXxvLCqy7so_CPyFXM" : {
    "icon" : "assets/images/educacao.png",
    "lat" : "-5.097389",
    "long" : "-42.739386",
    "name" : "E.M. Machado de Assis"
  },
  "-LuXxvLCqy7so_CPyFXN" : {
    "icon" : "assets/images/educacao.png",
    "lat" : "-5.092335",
    "long" : "-42.65543",
    "name" : "E.M. Manoel Nogueira Lima"
  },
  "-LuXxvLCqy7so_CPyFXO" : {
    "icon" : "assets/images/educacao.png",
    "lat" : "-5.045063",
    "long" : "-42.730373",
    "name" : "E.M. Marcílio Flávio Rangel de Farias"
  },
  "-LuXxvLD8JrEvN2ewb6g" : {
    "icon" : "assets/images/educacao.png",
    "lat" : "-4.986751",
    "long" : "-42.846539",
    "name" : "E.M. Mariano Alves de Carvalho"
  },
  "-LuXxvLD8JrEvN2ewb6h" : {
    "icon" : "assets/images/educacao.png",
    "lat" : "-5.089977",
    "long" : "-42.736896",
    "name" : "E.M. Mário Covas"
  },
  "-LuXxvLD8JrEvN2ewb6i" : {
    "icon" : "assets/images/educacao.png",
    "lat" : "-5.011938",
    "long" : "-42.779227",
    "name" : "E.M. Mário Faustino"
  },
  "-LuXxvLD8JrEvN2ewb6j" : {
    "icon" : "assets/images/educacao.png",
    "lat" : "-5.115662",
    "long" : "-42.763564",
    "name" : "E.M. Mário Quintana"
  },
  "-LuXxvLD8JrEvN2ewb6k" : {
    "icon" : "assets/images/educacao.png",
    "lat" : "-5.092288",
    "long" : "-42.790683",
    "name" : "E.M. Mascarenhas de Moraes"
  },
  "-LuXxvLEYBqs9IUo9HLH" : {
    "icon" : "assets/images/educacao.png",
    "lat" : "-5.066173",
    "long" : "-42.829099",
    "name" : "E.M. Minha Casa"
  },
  "-LuXxvLEYBqs9IUo9HLI" : {
    "icon" : "assets/images/educacao.png",
    "lat" : "-5.014252",
    "long" : "-42.773802",
    "name" : "E.M. Ministro Ruben Ludwig"
  },
  "-LuXxvLEYBqs9IUo9HLJ" : {
    "icon" : "assets/images/educacao.png",
    "lat" : "-5.026252",
    "long" : "-42.804257",
    "name" : "E.M. Moacir Maderia Campos"
  },
  "-LuXxvLEYBqs9IUo9HLK" : {
    "icon" : "assets/images/educacao.png",
    "lat" : "-5.034137",
    "long" : "-42.818474",
    "name" : "E.M. Mocambinho"
  },
  "-LuXxvLFbHLEhsooFSx1" : {
    "icon" : "assets/images/educacao.png",
    "lat" : "-5.117958",
    "long" : "-42.779325",
    "name" : "E.M. Monsenhor Mateus Rufino"
  },
  "-LuXxvLFbHLEhsooFSx2" : {
    "icon" : "assets/images/educacao.png",
    "lat" : "-5.195569",
    "long" : "-42.762509",
    "name" : "E.M. Monteiro Lobato"
  },
  "-LuXxvLFbHLEhsooFSx3" : {
    "icon" : "assets/images/educacao.png",
    "lat" : "-5.074085",
    "long" : "-42.812832",
    "name" : "E.M. Murilo Braga"
  },
  "-LuXxvLFbHLEhsooFSx4" : {
    "icon" : "assets/images/educacao.png",
    "lat" : "-5.139089",
    "long" : "-42.801567",
    "name" : "E.M. Myriam Portella Nunes"
  },
  "-LuXxvLGtFXKP4A2NOYc" : {
    "icon" : "assets/images/educacao.png",
    "lat" : "-5.04679",
    "long" : "-42.790747",
    "name" : "E.M. Noé Araújo Fortes"
  },
  "-LuXxvLGtFXKP4A2NOYd" : {
    "icon" : "assets/images/educacao.png",
    "lat" : "-5.062006",
    "long" : "-42.780647",
    "name" : "E.M. Noé Fortes"
  },
  "-LuXxvLGtFXKP4A2NOYe" : {
    "icon" : "assets/images/educacao.png",
    "lat" : "-5.113707",
    "long" : "-42.783829",
    "name" : "E.M. Nossa Senhora da Paz"
  },
  "-LuXxvLGtFXKP4A2NOYf" : {
    "icon" : "assets/images/educacao.png",
    "lat" : "-5.113274",
    "long" : "-42.784155",
    "name" : "E.M. Nossa Senhora da Paz Inicial"
  },
  "-LuXxvLHJC5eQTQluo9S" : {
    "icon" : "assets/images/educacao.png",
    "lat" : "-4.974291",
    "long" : "-42.651786",
    "name" : "E.M. Nossa Senhora do Amparo"
  },
  "-LuXxvLHJC5eQTQluo9T" : {
    "icon" : "assets/images/educacao.png",
    "lat" : "-5.053169",
    "long" : "-42.829959",
    "name" : "E.M. Nova Brasília"
  },
  "-LuXxvLHJC5eQTQluo9U" : {
    "icon" : "assets/images/educacao.png",
    "lat" : "-5.1133299",
    "long" : "-42.7366994",
    "name" : "E.M. O.G. Rego de Carvalho"
  },
  "-LuXxvLHJC5eQTQluo9V" : {
    "icon" : "assets/images/educacao.png",
    "lat" : "-5.061988",
    "long" : "-42.751931",
    "name" : "E.M. Padre Angelo Imperialli"
  },
  "-LuXxvLIYoujXxOEbeuI" : {
    "icon" : "assets/images/educacao.png",
    "lat" : "-5.104592",
    "long" : "-42.749385",
    "name" : "E.M. Parque Itararé"
  },
  "-LuXxvLIYoujXxOEbeuJ" : {
    "icon" : "assets/images/educacao.png",
    "lat" : "-5.14709",
    "long" : "-42.793884",
    "name" : "E.M. Parque Piauí"
  },
  "-LuXxvLJrBdaWEZGfVrW" : {
    "icon" : "assets/images/educacao.png",
    "lat" : "-5.286582",
    "long" : "-42.798023",
    "name" : "E.M. Piripiri"
  },
  "-LuXxvLJrBdaWEZGfVrX" : {
    "icon" : "assets/images/educacao.png",
    "lat" : "-5.057303",
    "long" : "-42.779993",
    "name" : "E.M. Planalto Ininga"
  },
  "-LuXxvLKnJSfBcGLiEBn" : {
    "icon" : "assets/images/educacao.png",
    "lat" : "-5.12928",
    "long" : "-42.788257",
    "name" : "E.M. Prof. Antilhon Ribeiro Soares"
  },
  "-LuXxvLKnJSfBcGLiEBo" : {
    "icon" : "assets/images/educacao.png",
    "lat" : "-5.11625",
    "long" : "-42.797867",
    "name" : "E.M. Prof. Benjamin Soares de Carvalho"
  },
  "-LuXxvLKnJSfBcGLiEBp" : {
    "icon" : "assets/images/educacao.png",
    "lat" : "-5.132144",
    "long" : "-42.792953",
    "name" : "E.M. Prof. Didácio Silva"
  },
  "-LuXxvLKnJSfBcGLiEBq" : {
    "icon" : "assets/images/educacao.png",
    "lat" : "-5.101705",
    "long" : "-42.735359",
    "name" : "E.M. Prof. João Porfirio de Lima Cordão"
  },
  "-LuXxvLKnJSfBcGLiEBr" : {
    "icon" : "assets/images/educacao.png",
    "lat" : "-5.055179",
    "long" : "-42.733195",
    "name" : "E.M. Prof. José Camilo da Silveira Filho"
  },
  "-LuXxvLLGF5bt5lbpwWp" : {
    "icon" : "assets/images/educacao.png",
    "lat" : "-5.052378",
    "long" : "-42.817665",
    "name" : "E.M. Prof. José Carlos"
  },
  "-LuXxvLLGF5bt5lbpwWq" : {
    "icon" : "assets/images/educacao.png",
    "lat" : "-5.043914",
    "long" : "-42.748135",
    "name" : "E.M. Prof. Manoel Paulo Nunes"
  },
  "-LuXxvLLGF5bt5lbpwWr" : {
    "icon" : "assets/images/educacao.png",
    "lat" : "-5.131883",
    "long" : "-42.775021",
    "name" : "E.M. Prof. Nelson do Amaral Sobreira"
  },
  "-LuXxvLLGF5bt5lbpwWs" : {
    "icon" : "assets/images/educacao.png",
    "lat" : "-5.188946",
    "long" : "-42.755743",
    "name" : "E.M. Prof. Ofélio Leitão"
  },
  "-LuXxvLMvmuHNTrPjRoh" : {
    "icon" : "assets/images/educacao.png",
    "lat" : "-5.046103",
    "long" : "-42.7460964",
    "name" : "E.M. Prof. Oscar Olímpio Cavalcante"
  },
  "-LuXxvLMvmuHNTrPjRoi" : {
    "icon" : "assets/images/educacao.png",
    "lat" : "-5.149389",
    "long" : "-42.776601",
    "name" : "E.M. Prof. Valdemar Sandes"
  },
  "-LuXxvLMvmuHNTrPjRoj" : {
    "icon" : "assets/images/educacao.png",
    "lat" : "-5.05362",
    "long" : "-42.738489",
    "name" : "E.M. Prof. Valter Alencar"
  },
  "-LuXxvLMvmuHNTrPjRok" : {
    "icon" : "assets/images/educacao.png",
    "lat" : "-5.0910336",
    "long" : "-42.7345764",
    "name" : "E.M. Prof. Ubiraci Carvalho"
  },
  "-LuXxvLNBNa2OI_2jNcv" : {
    "icon" : "assets/images/educacao.png",
    "lat" : "-5.004414",
    "long" : "-42.781091",
    "name" : "E.M. Profª Alda Rodrigues Neiva"
  },
  "-LuXxvLNBNa2OI_2jNcw" : {
    "icon" : "assets/images/educacao.png",
    "lat" : "-5.156942",
    "long" : "-42.78835",
    "name" : "E.M. Profª Ana Bugyja Brito"
  },
  "-LuXxvLNBNa2OI_2jNcx" : {
    "icon" : "assets/images/educacao.png",
    "lat" : "-5.114693",
    "long" : "-42.789172",
    "name" : "E.M. Profª Cristina Evangelista"
  },
  "-LuXxvLNBNa2OI_2jNcy" : {
    "icon" : "assets/images/educacao.png",
    "lat" : "-4.986599",
    "long" : "-42.835993",
    "name" : "E.M. Profª Darcy Pereira de Carvalho"
  },
  "-LuXxvLOxSTEnIzEXVrW" : {
    "icon" : "assets/images/educacao.png",
    "lat" : "-5.193794",
    "long" : "-42.76403",
    "name" : "E.M. Profª Maria do Socorro Pereira da Silva"
  },
  "-LuXxvLOxSTEnIzEXVrX" : {
    "icon" : "assets/images/educacao.png",
    "lat" : "-5.06457",
    "long" : "-42.761253",
    "name" : "E.M. Profª Thereza Noronha"
  },
  "-LuXxvLOxSTEnIzEXVrY" : {
    "icon" : "assets/images/educacao.png",
    "lat" : "-5.170017",
    "long" : "-42.789225",
    "name" : "E.M. Profª Zoraide Almeida"
  },
  "-LuXxvLOxSTEnIzEXVrZ" : {
    "icon" : "assets/images/educacao.png",
    "lat" : "-5.186505",
    "long" : "-42.7786",
    "name" : "E.M. R. N. Monteiro Santana"
  },
  "-LuXxvLOxSTEnIzEXVr_" : {
    "icon" : "assets/images/educacao.png",
    "lat" : "-4.944699",
    "long" : "-42.676375",
    "name" : "E.M. Raimundo Adão"
  },
  "-LuXxvLPH-63KoToE55n" : {
    "icon" : "assets/images/educacao.png",
    "lat" : "-5.20329",
    "long" : "-42.799381",
    "name" : "E.M. Raimundo de Area Leão Melo"
  },
  "-LuXxvLPH-63KoToE55o" : {
    "icon" : "assets/images/educacao.png",
    "lat" : "-5.017104",
    "long" : "-42.777686",
    "name" : "E.M. Residencial Pedra Mole"
  },
  "-LuXxvLPH-63KoToE55p" : {
    "icon" : "assets/images/educacao.png",
    "lat" : "-5.005721",
    "long" : "-42.823067",
    "name" : "E.M. Roberto Cerqueira Dantas"
  },
  "-LuXxvLPH-63KoToE55q" : {
    "icon" : "assets/images/educacao.png",
    "lat" : "-5.159843",
    "long" : "-42.785374",
    "name" : "E.M. Rosângela Reis"
  },
  "-LuXxvLQNa8thZ2HzV6R" : {
    "icon" : "assets/images/educacao.png",
    "lat" : "-5.178011",
    "long" : "-42.759001",
    "name" : "E.M. Santa Clara"
  },
  "-LuXxvLQNa8thZ2HzV6S" : {
    "icon" : "assets/images/educacao.png",
    "lat" : "-4.917627",
    "long" : "-42.783698",
    "name" : "E.M. Santa Filomena"
  },
  "-LuXxvLQNa8thZ2HzV6T" : {
    "icon" : "assets/images/educacao.png",
    "lat" : "-5.073089",
    "long" : "-42.738884",
    "name" : "E.M. Santa Maria"
  },
  "-LuXxvLQNa8thZ2HzV6U" : {
    "icon" : "assets/images/educacao.png",
    "lat" : "-4.9825809",
    "long" : "-42.8430297",
    "name" : "E.M. Santa Maria da Codipi"
  },
  "-LuXxvLRp50J2yIyRspu" : {
    "icon" : "assets/images/educacao.png",
    "lat" : "-4.991741",
    "long" : "-42.840934",
    "name" : "E.M. Santa Maria das Vassouras"
  },
  "-LuXxvLRp50J2yIyRspv" : {
    "icon" : "assets/images/educacao.png",
    "lat" : "-4.985362",
    "long" : "-42.641463",
    "name" : "E.M. Santa Teresa"
  },
  "-LuXxvLRp50J2yIyRspw" : {
    "icon" : "assets/images/educacao.png",
    "lat" : "-4.941361",
    "long" : "-42.770087",
    "name" : "E.M. São Geraldo"
  },
  "-LuXxvLRp50J2yIyRspx" : {
    "icon" : "assets/images/educacao.png",
    "lat" : "-5.186581",
    "long" : "-42.69572",
    "name" : "E.M. São José"
  },
  "-LuXxvLRp50J2yIyRspy" : {
    "icon" : "assets/images/educacao.png",
    "lat" : "-5.100583",
    "long" : "-42.72239",
    "name" : "E.M. São Sebastião"
  },
  "-LuXxvLSBGfKcTPXW0vb" : {
    "icon" : "assets/images/educacao.png",
    "lat" : "-5.23471",
    "long" : "-42.705791",
    "name" : "E.M. Serafim"
  },
  "-LuXxvLSBGfKcTPXW0vc" : {
    "icon" : "assets/images/educacao.png",
    "lat" : "-5.100882",
    "long" : "-42.789492",
    "name" : "E.M. Simões Filho"
  },
  "-LuXxvLSBGfKcTPXW0vd" : {
    "icon" : "assets/images/educacao.png",
    "lat" : "-4.999444",
    "long" : "-42.732819",
    "name" : "E.M. Soim"
  },
  "-LuXxvLSBGfKcTPXW0ve" : {
    "icon" : "assets/images/educacao.png",
    "lat" : "-4.964776",
    "long" : "-42.729832",
    "name" : "E.M. Tapuia"
  },
  "-LuXxvLT-Y6I8afk-tN4" : {
    "icon" : "assets/images/educacao.png",
    "lat" : "-4.979708",
    "long" : "-42.694661",
    "name" : "E.M. Teodoro Machado Coelho"
  },
  "-LuXxvLT-Y6I8afk-tN5" : {
    "icon" : "assets/images/educacao.png",
    "lat" : "-5.032573",
    "long" : "-42.76779",
    "name" : "E.M. Tio Bentes"
  },
  "-LuXxvLT-Y6I8afk-tN6" : {
    "icon" : "assets/images/educacao.png",
    "lat" : "-5.109408",
    "long" : "-42.771853",
    "name" : "E.M. Torquato Neto"
  },
  "-LuXxvLT-Y6I8afk-tN7" : {
    "icon" : "assets/images/educacao.png",
    "lat" : "-5.182864",
    "long" : "-42.750995",
    "name" : "E.M. Velho Monge"
  },
  "-LuXxvLUQi81FTR_GOvM" : {
    "icon" : "assets/images/educacao.png",
    "lat" : "-5.063506",
    "long" : "-42.762077",
    "name" : "E.M. Vereador José Omati"
  },
  "-LuXxvLUQi81FTR_GOvN" : {
    "icon" : "assets/images/educacao.png",
    "lat" : "-5.027201",
    "long" : "-42.665382",
    "name" : "E.M. Vereador Vieira Toranga"
  },
  "-LuXxvLUQi81FTR_GOvO" : {
    "icon" : "assets/images/educacao.png",
    "lat" : "-5.1060212",
    "long" : "-42.7314711",
    "name" : "E.M. Vinícius de Morais"
  },
  "-LuXxvLUQi81FTR_GOvP" : {
    "icon" : "assets/images/educacao.png",
    "lat" : "-5.005195",
    "long" : "-42.760924",
    "name" : "Escola Agricola Santo Afonso Rodrigues"
  },
  "-LuXxvLVS1zaRVXW2Tkv" : {
    "icon" : "assets/images/servicos.png",
    "lat" : "-5.111788",
    "long" : "-42.730258",
    "name" : "Parque Amb. Curva São Paulo"
  },
  "-LuXxvLVS1zaRVXW2Tkw" : {
    "icon" : "assets/images/servicos.png",
    "lat" : "-5.056393",
    "long" : "-42.810225",
    "name" : "Parque Amb. da Cidade"
  },
  "-LuXxvLVS1zaRVXW2Tkx" : {
    "icon" : "assets/images/servicos.png",
    "lat" : "-5.10628",
    "long" : "-42.801937",
    "name" : "Parque Amb. da Macaúba"
  },
  "-LuXxvLVS1zaRVXW2Tky" : {
    "icon" : "assets/images/servicos.png",
    "lat" : "-5.071799",
    "long" : "-42.833853",
    "name" : "Parque Amb. do Acarape"
  },
  "-LuXxvLWPaYxKy4hspUj" : {
    "icon" : "assets/images/servicos.png",
    "lat" : "-5.065893",
    "long" : "-42.834785",
    "name" : "Parque Amb. Lagoas do Norte"
  },
  "-LuXxvLWPaYxKy4hspUk" : {
    "icon" : "assets/images/servicos.png",
    "lat" : "-5.068086",
    "long" : "-42.754167",
    "name" : "Parque Amb. Marina"
  },
  "-LuXxvLWPaYxKy4hspUl" : {
    "icon" : "assets/images/servicos.png",
    "lat" : "-5.0228988",
    "long" : "-42.8181194",
    "name" : "Parque Amb. Mocambinho"
  },
  "-LuXxvLWPaYxKy4hspUm" : {
    "icon" : "assets/images/servicos.png",
    "lat" : "-5.052992",
    "long" : "-42.784995",
    "name" : "Parque Amb. Nossa Senhora do Livramento"
  },
  "-LuXxvLX3WiPwCiuzH1n" : {
    "icon" : "assets/images/servicos.png",
    "lat" : "-5.13206",
    "long" : "-42.799846",
    "name" : "Parque Amb. São João"
  },
  "-LuXxvLX3WiPwCiuzH1o" : {
    "icon" : "assets/images/servicos.png",
    "lat" : "-5.034585",
    "long" : "-42.829221",
    "name" : "Parque Ambiental São Pedro"
  },
  "-LuXxvLX3WiPwCiuzH1p" : {
    "icon" : "assets/images/servicos.png",
    "lat" : "-5.083667",
    "long" : "-42.803752",
    "name" : "Parque Estação Cidadania"
  },
  "-LuXxvLX3WiPwCiuzH1q" : {
    "icon" : "assets/images/servicos.png",
    "lat" : "-5.082531",
    "long" : "-42.784577",
    "name" : "Parque Ambiental Mini Horto da Samambaia"
  },
  "-LuXxvLX3WiPwCiuzH1r" : {
    "icon" : "assets/images/servicos.png",
    "lat" : "-5.081047",
    "long" : "-42.797167",
    "name" : "Parque Ambiental Poty I"
  },
  "-LuXxvLYvAdZqViSj9Zw" : {
    "icon" : "assets/images/servicos.png",
    "lat" : "-5.111551",
    "long" : "-42.814736",
    "name" : "Parque Ambiental da Prainha"
  },
  "-LuXxvLZ8dzE4uLkqOKk" : {
    "icon" : "assets/images/servicos.png",
    "lat" : "-5.034229",
    "long" : "-42.809938",
    "name" : "Jardim Botânico de Teresina"
  },
  "-LuXxvLZ8dzE4uLkqOKl" : {
    "icon" : "assets/images/servicos.png",
    "lat" : "-5.035334",
    "long" : "-42.838959",
    "name" : "Parque Ambiental Encontro dos Rios"
  },
  "-LuXxvL_xmr6LblhxYsj" : {
    "icon" : "assets/images/servicos.png",
    "lat" : "-5.053739",
    "long" : "-42.783489",
    "name" : "Parque Ambiental Caneleiro I"
  },
  "-LuXxvLa2sNJznuOGQzc" : {
    "icon" : "assets/images/servicos.png",
    "lat" : "-5.087647",
    "long" : "-42.783788",
    "name" : "Parque Ambiental Florestal Fossil I"
  },
  "-LuXxvLa2sNJznuOGQzd" : {
    "icon" : "assets/images/servicos.png",
    "lat" : "-5.089844",
    "long" : "-42.788148",
    "name" : "Parque Ambiental Florestal Fossil II"
  },
  "-LuXxvLb62nbSpINmdOV" : {
    "icon" : "assets/images/servicos.png",
    "lat" : "-5.078871",
    "long" : "-42.796435",
    "name" : "Parque Ambiental Beira Rio"
  },
  "-LuXxvLb62nbSpINmdOW" : {
    "icon" : "assets/images/servicos.png",
    "lat" : "-5.054025",
    "long" : "-42.828159",
    "name" : "Parque Ambiental Nova Brasília"
  },
  "-LuXxvLb62nbSpINmdOX" : {
    "icon" : "assets/images/servicos.png",
    "lat" : "-5.071028",
    "long" : "-42.801455",
    "name" : "Parque Ambiental Raul Lopes"
  },
  "-LuXxvLch_nmoKjWdLfe" : {
    "icon" : "assets/images/servicos.png",
    "lat" : "-5.060247",
    "long" : "-42.757746",
    "name" : "Parque Tropical"
  },
  "-LuXxvLdvQrlS6iVFUT7" : {
    "icon" : "assets/images/servicos.png",
    "lat" : "-5.031708",
    "long" : "-42.735158",
    "name" : "Parque Ambeintal Vale do Gavião"
  },
  "-LuXxvLdvQrlS6iVFUT8" : {
    "icon" : "assets/images/servicos.png",
    "lat" : "-4.984565",
    "long" : "-42.842935",
    "name" : "Praça da Rua Lourival Mesquita"
  },
  "-LuXxvLeS-t6-XJRe2CO" : {
    "icon" : "assets/images/servicos.png",
    "lat" : "-5.076374",
    "long" : "-42.790586",
    "name" : "Praça Cel.Pedro Borges"
  },
  "-LuXxvLeS-t6-XJRe2CP" : {
    "icon" : "assets/images/servicos.png",
    "lat" : "-5.098638",
    "long" : "-42.799583",
    "name" : "Praça José Levino"
  },
  "-LuXxvLeS-t6-XJRe2CQ" : {
    "icon" : "assets/images/servicos.png",
    "lat" : "-5.109426",
    "long" : "-42.793331",
    "name" : "Praça das Comunicações"
  },
  "-LuXxvLfjeUmk-YFr9MR" : {
    "icon" : "assets/images/servicos.png",
    "lat" : "-5.10212",
    "long" : "-42.797076",
    "name" : "Pracinha Estevão Alexandrino"
  },
  "-LuXxvLfjeUmk-YFr9MS" : {
    "icon" : "assets/images/servicos.png",
    "lat" : "-5.115869",
    "long" : "-42.763114",
    "name" : "Praça no Bairro Comprida"
  },
  "-LuXxvLfjeUmk-YFr9MT" : {
    "icon" : "assets/images/servicos.png",
    "lat" : "-5.104659",
    "long" : "-42.810106",
    "name" : "Praça Nossa Senhora de Lourdes I"
  },
  "-LuXxvLgQoxfN50l7Fi7" : {
    "icon" : "assets/images/servicos.png",
    "lat" : "-5.066814",
    "long" : "-42.835993",
    "name" : "Praça Monumental Lagoas do Norte"
  },
  "-LuXxvLgQoxfN50l7Fi8" : {
    "icon" : "assets/images/servicos.png",
    "lat" : "-5.052276",
    "long" : "-42.79294",
    "name" : "Praça da Rua Benício de Melo"
  },
  "-LuXxvLgQoxfN50l7Fi9" : {
    "icon" : "assets/images/servicos.png",
    "lat" : "-5.055731",
    "long" : "-42.787997",
    "name" : "Praça da rua Epifânio Carvalho"
  },
  "-LuXxvLgQoxfN50l7FiA" : {
    "icon" : "assets/images/servicos.png",
    "lat" : "-5.074276",
    "long" : "-42.776251",
    "name" : "Praça Edson Veras"
  },
  "-LuXxvLhpe2A9fpJJOjU" : {
    "icon" : "assets/images/servicos.png",
    "lat" : "-5.088147",
    "long" : "-42.771475",
    "name" : "Praça Bernadino Viana - 5º Distrito"
  },
  "-LuXxvLhpe2A9fpJJOjV" : {
    "icon" : "assets/images/servicos.png",
    "lat" : "-5.08486",
    "long" : "-42.775796",
    "name" : "Praça do Triangulo"
  },
  "-LuXxvLic8bGdy74lkQ7" : {
    "icon" : "assets/images/servicos.png",
    "lat" : "-5.088588",
    "long" : "-42.77478",
    "name" : "Praça São João"
  },
  "-LuXxvLic8bGdy74lkQ8" : {
    "icon" : "assets/images/servicos.png",
    "lat" : "-5.08636",
    "long" : "-42.778836",
    "name" : "Praca da Rua Antônio Chaves"
  },
  "-LuXxvLjP-3y6aMGZ2sb" : {
    "icon" : "assets/images/servicos.png",
    "lat" : "-5.082408",
    "long" : "-42.787571",
    "name" : "Praça do Girassol"
  },
  "-LuXxvLk-zMwsV1poJ9Q" : {
    "icon" : "assets/images/servicos.png",
    "lat" : "-5.125186",
    "long" : "-42.78825",
    "name" : "Praça do Morada Nova"
  },
  "-LuXxvLk-zMwsV1poJ9R" : {
    "icon" : "assets/images/servicos.png",
    "lat" : "-5.078111",
    "long" : "-42.76725",
    "name" : "Praça Adelino Dias Pinheiro"
  },
  "-LuXxvLk-zMwsV1poJ9S" : {
    "icon" : "assets/images/servicos.png",
    "lat" : "-5.078859",
    "long" : "-42.768903",
    "name" : "Praça Engº Paulo Marques"
  },
  "-LuXxvLlEWCGay6G2Q_9" : {
    "icon" : "assets/images/servicos.png",
    "lat" : "-5.081199",
    "long" : "-42.774882",
    "name" : "Praça São Cristóvão"
  },
  "-LuXxvLlEWCGay6G2Q_A" : {
    "icon" : "assets/images/servicos.png",
    "lat" : "-5.071101",
    "long" : "-42.760541",
    "name" : "Praça Jornalista Carlos Castelo Branco"
  },
  "-LuXxvLlEWCGay6G2Q_B" : {
    "icon" : "assets/images/servicos.png",
    "lat" : "-5.071356",
    "long" : "-42.761917",
    "name" : "Praça Leda Torquato"
  },
  "-LuXxvLmxopc2T7ATjw-" : {
    "icon" : "assets/images/servicos.png",
    "lat" : "-5.071527",
    "long" : "-42.791796",
    "name" : "Praça Nossa Senhora de Fátima"
  },
  "-LuXxvLmxopc2T7ATjw0" : {
    "icon" : "assets/images/servicos.png",
    "lat" : "-5.150001",
    "long" : "-42.784929",
    "name" : "Praça da Bíblia"
  },
  "-LuXxvLmxopc2T7ATjw1" : {
    "icon" : "assets/images/servicos.png",
    "lat" : "-5.149755",
    "long" : "-42.78737",
    "name" : "Praça da Feira Comunitária do Promorar"
  },
  "-LuXxvLnfsNQJocJDXEV" : {
    "icon" : "assets/images/servicos.png",
    "lat" : "-5.072354",
    "long" : "-42.762531",
    "name" : "Praça Padre Balduino"
  },
  "-LuXxvLnfsNQJocJDXEW" : {
    "icon" : "assets/images/servicos.png",
    "lat" : "-5.07645",
    "long" : "-42.773938",
    "name" : "Praça Abelar Teles"
  },
  "-LuXxvLnfsNQJocJDXEX" : {
    "icon" : "assets/images/servicos.png",
    "lat" : "-5.139985",
    "long" : "-42.797683",
    "name" : "Praça Gentil Mâcedo"
  },
  "-LuXxvLnfsNQJocJDXEY" : {
    "icon" : "assets/images/servicos.png",
    "lat" : "-5.152719",
    "long" : "-42.789417",
    "name" : "Praça da Vitória"
  },
  "-LuXxvLoIfip3CphCFAK" : {
    "icon" : "assets/images/servicos.png",
    "lat" : "-5.137976",
    "long" : "-42.800288",
    "name" : "Praça Prefeito João Mendes"
  },
  "-LuXxvLp0G6TqrQJU1Vd" : {
    "icon" : "assets/images/servicos.png",
    "lat" : "-5.138274",
    "long" : "-42.796434",
    "name" : "Praça da Amizade"
  },
  "-LuXxvLtB46sub9EkmiR" : {
    "icon" : "assets/images/servicos.png",
    "lat" : "-5.136701",
    "long" : "-42.803968",
    "name" : "Praça da Quadra"
  },
  "-LuXxvLuManhh88MCHCJ" : {
    "icon" : "assets/images/servicos.png",
    "lat" : "-5.139385",
    "long" : "-42.804156",
    "name" : "Pracinha do Sacy VI"
  },
  "-LuXxvLuManhh88MCHCK" : {
    "icon" : "assets/images/servicos.png",
    "lat" : "-5.139441",
    "long" : "-42.803467",
    "name" : "Pracinha do Saci V"
  },
  "-LuXxvLuManhh88MCHCL" : {
    "icon" : "assets/images/servicos.png",
    "lat" : "-5.139524",
    "long" : "-42.802557",
    "name" : "Pracinha do Sacy IV"
  },
  "-LuXxvLuManhh88MCHCM" : {
    "icon" : "assets/images/servicos.png",
    "lat" : "-5.007655",
    "long" : "-42.773172",
    "name" : "Praça Anita Ferraz"
  },
  "-LuXxvLvvE7yVfIm6azt" : {
    "icon" : "assets/images/servicos.png",
    "lat" : "-5.154013",
    "long" : "-42.788786",
    "name" : "Praça do Sindicato"
  },
  "-LuXxvLvvE7yVfIm6azu" : {
    "icon" : "assets/images/servicos.png",
    "lat" : "-5.136843",
    "long" : "-42.802985",
    "name" : "Praça Chales Delano"
  },
  "-LuXxvLvvE7yVfIm6azv" : {
    "icon" : "assets/images/servicos.png",
    "lat" : "-5.136876",
    "long" : "-42.802129",
    "name" : "Praça Nova"
  },
  "-LuXxvLvvE7yVfIm6azw" : {
    "icon" : "assets/images/servicos.png",
    "lat" : "-5.065211",
    "long" : "-42.759926",
    "name" : "Área Verde"
  },
  "-LuXxvLwup_riiLUFQuR" : {
    "icon" : "assets/images/servicos.png",
    "lat" : "-5.139546",
    "long" : "-42.795958",
    "name" : "Praça José Eduardo Pereira"
  },
  "-LuXxvLwup_riiLUFQuS" : {
    "icon" : "assets/images/servicos.png",
    "lat" : "-5.143032",
    "long" : "-42.79287",
    "name" : "Praça da Ação Comunitária"
  },
  "-LuXxvLwup_riiLUFQuT" : {
    "icon" : "assets/images/servicos.png",
    "lat" : "-5.144476",
    "long" : "-42.788206",
    "name" : "Praça da Igreja São João Batista"
  },
  "-LuXxvLwup_riiLUFQuU" : {
    "icon" : "assets/images/servicos.png",
    "lat" : "-5.140617",
    "long" : "-42.789419",
    "name" : "Praça das Mangueiras"
  },
  "-LuXxvLx0HuSVLDDr7Td" : {
    "icon" : "assets/images/servicos.png",
    "lat" : "-5.14122",
    "long" : "-42.789678",
    "name" : "Praça da Integração"
  },
  "-LuXxvLx0HuSVLDDr7Te" : {
    "icon" : "assets/images/servicos.png",
    "lat" : "-5.140091",
    "long" : "-42.787451",
    "name" : "Praça da Concórdia"
  },
  "-LuXxvLx0HuSVLDDr7Tf" : {
    "icon" : "assets/images/servicos.png",
    "lat" : "-5.142117",
    "long" : "-42.785639",
    "name" : "Praça da União"
  },
  "-LuXxvLx0HuSVLDDr7Tg" : {
    "icon" : "assets/images/servicos.png",
    "lat" : "-5.14177",
    "long" : "-42.784404",
    "name" : "Praça Sao Pedro"
  },
  "-LuXxvLyaA19dt60G2vC" : {
    "icon" : "assets/images/servicos.png",
    "lat" : "-5.140625",
    "long" : "-42.784498",
    "name" : "Praça da Criança"
  },
  "-LuXxvLyaA19dt60G2vD" : {
    "icon" : "assets/images/servicos.png",
    "lat" : "-5.142425",
    "long" : "-42.786848",
    "name" : "Praça da Fayeira"
  },
  "-LuXxvLyaA19dt60G2vE" : {
    "icon" : "assets/images/servicos.png",
    "lat" : "-5.144229",
    "long" : "-42.792789",
    "name" : "Praça Vereador Paulo Fortes"
  },
  "-LuXxvLyaA19dt60G2vF" : {
    "icon" : "assets/images/servicos.png",
    "lat" : "-5.1425261",
    "long" : "-42.7922161",
    "name" : "Praça da Igreja São João Evangelista"
  },
  "-LuXxvLz13c-ExMpmI66" : {
    "icon" : "assets/images/servicos.png",
    "lat" : "-5.13717",
    "long" : "-42.799168",
    "name" : "Praça Dina Amaral"
  },
  "-LuXxvLz13c-ExMpmI67" : {
    "icon" : "assets/images/servicos.png",
    "lat" : "-5.136526",
    "long" : "-42.805294",
    "name" : "Praça Bona Medeiros"
  },
  "-LuXxvLz13c-ExMpmI68" : {
    "icon" : "assets/images/servicos.png",
    "lat" : "-5.136219",
    "long" : "-42.806858",
    "name" : "Praça do Mensageiro Burlamaqui"
  },
  "-LuXxvM-KBWIVnavMVgy" : {
    "icon" : "assets/images/servicos.png",
    "lat" : "-5.137124",
    "long" : "-42.798689",
    "name" : "Pracinha do Saci I"
  },
  "-LuXxvM-KBWIVnavMVgz" : {
    "icon" : "assets/images/servicos.png",
    "lat" : "-5.137079",
    "long" : "-42.799597",
    "name" : "Pracinha do Saci III"
  },
  "-LuXxvM-KBWIVnavMVh-" : {
    "icon" : "assets/images/servicos.png",
    "lat" : "-5.137178",
    "long" : "-42.778578",
    "name" : "Praça e Espaço Cultural"
  },
  "-LuXxvM-KBWIVnavMVh0" : {
    "icon" : "assets/images/servicos.png",
    "lat" : "-5.139646",
    "long" : "-42.778377",
    "name" : "Praça Emb. Expedito Resende"
  },
  "-LuXxvM06JBygUCbR2Dz" : {
    "icon" : "assets/images/servicos.png",
    "lat" : "-5.141331",
    "long" : "-42.777343",
    "name" : "Praça Raimundo Nonato Veraz Cruz"
  },
  "-LuXxvM06JBygUCbR2E-" : {
    "icon" : "assets/images/servicos.png",
    "lat" : "-5.140245",
    "long" : "-42.780457",
    "name" : "Praça da Amizade"
  },
  "-LuXxvM06JBygUCbR2E0" : {
    "icon" : "assets/images/servicos.png",
    "lat" : "-5.097274",
    "long" : "-42.723099",
    "name" : "Praça da Ferinha"
  },
  "-LuXxvM06JBygUCbR2E1" : {
    "icon" : "assets/images/servicos.png",
    "lat" : "-5.036749",
    "long" : "-42.828856",
    "name" : "Praça Maria do Carmo Rodrigues"
  },
  "-LuXxvM1kbHt6CO4L4uT" : {
    "icon" : "assets/images/servicos.png",
    "lat" : "-5.060135",
    "long" : "-42.827303",
    "name" : "Praça da Alvorada"
  },
  "-LuXxvM1kbHt6CO4L4uU" : {
    "icon" : "assets/images/servicos.png",
    "lat" : "-5.053743",
    "long" : "-42.830388",
    "name" : "Praça Luiz Abreu"
  },
  "-LuXxvM1kbHt6CO4L4uV" : {
    "icon" : "assets/images/servicos.png",
    "lat" : "-5.066768",
    "long" : "-42.817149",
    "name" : "Praça Mário Basílio"
  },